stop_id,stop_code,stop_name,stop_lat,stop_lon
26,26,Nebraska Av @ Columbus Dr,27.966904,-82.451178
86,86,50th St @ Palm River Rd,27.943531,-82.401742
403,403,Nebraska Av @ Twiggs St,27.951797,-82.450892
404,404,Metro Rapid Station 3 Nebraska Av @,27.953862,-82.451166
405,405,Nebraska Av @ Maryland Av,27.95455,-82.451146
407,407,Metro Rapid Station 5 Nebraska Av @,27.958418,-82.451116
409,409,Nebraska Av @ 7th Av,27.960157,-82.451116
413,413,Nebraska Av @ 15th Av,27.965799,-82.451097
414,414,Nebraska Av @ 19th Av,27.968736,-82.451178
418,418,Nebraska Av @ 26th Av,27.974132,-82.45115
420,420,Nebraska Av @ Lake Av,27.97769,-82.451129
422,422,Nebraska @ Mlk (@ 33Rd Av),27.98077,-82.450987
424,424,Nebraska Av @ Chelsea St,27.984984,-82.451094
427,427,Nebraska Av @ New Orleans Av,27.990083,-82.451097
429,429,Nebraska Av @ McBerry St,27.992712,-82.451102
430,430,Nebraska Av @ Frierson Av,27.994217,-82.451098
431,431,Nebraska Av @ Hillsborough Av,27.995641,-82.45104
433,433,Nebraska Av @ Powhattan Av,27.998681,-82.451168
435,435,Nebraska Av @ Henry Av,27.999928,-82.451193
436,436,Nebraska Av @ Idelwild Av,28.001809,-82.451163
438,438,Nebraska Av @ Fern St,28.004934,-82.451267
439,439,Nebraska Av @ Lambright St,28.006811,-82.451266
440,440,Nebraska Av @ Knollwood St,28.008152,-82.451263
441,441,Nebraska Av @ Sligh Av,28.01048,-82.451226
442,442,Nebraska Av @ Flora St,28.012364,-82.451243
443,443,Nebraska Av @ Hamilton St,28.014291,-82.451237
444,444,Nebraska Av @ Broad St,28.015986,-82.451233
445,445,Nebraska Av @ Patterson Av,28.017832,-82.451226
446,446,Nebraska Av @ Hollywood St,28.019317,-82.451239
447,447,Nebraska Av @ Van Dyke Place,28.021031,-82.451214
448,448,Nebraska Av @ Bird St,28.022444,-82.451209
449,449,Nebraska Av @ Waters Av,28.024512,-82.451156
451,451,Nebraska Av @ Fairbanks St,28.026736,-82.451212
452,452,Nebraska Av @ Seward St,28.027704,-82.451218
453,453,Nebraska Av @ Yukon St,28.029168,-82.451212
454,454,Nebraska Av @ Humphrey St,28.030536,-82.45121
455,455,Nebraska Av @ Skagway Av,28.031937,-82.451106
456,456,Nebraska Av @ 93Rd Av,28.033487,-82.451168
458,458,Nebraska Av @ Castle Ct,28.036963,-82.451066
460,460,Nebraska Av @ Linebaugh Av,28.039755,-82.45114
461,461,Nebraska Av @ Poinsettia Av,28.042352,-82.45112
462,462,Nebraska Av @ Bougainvillea Av,28.043437,-82.451109
463,463,Nebraska Av @ Chilkoot Av,28.044906,-82.451104
464,464,Nebraska Av @ 109th Av,28.047038,-82.451102
466,466,Nebraska Av @ Fowler Av,28.055055,-82.450978
468,468,Nebraska Av @ 120th Av,28.056774,-82.451086
469,469,Nebraska Av @ 124th Av,28.059963,-82.451019
470,470,Nebraska Av @ 128th Av,28.062607,-82.451009
471,471,Nebraska Av @ 131St Av,28.065359,-82.450999
473,473,Nebraska Av @ Fletcher Av,28.068737,-82.451314
475,475,Nebraska Av @ 131St Av,28.065776,-82.451324
476,476,Nebraska Av @ 128th Av,28.062661,-82.451354
477,477,Nebraska Av @ 126th Av,28.06143,-82.451354
478,478,Nebraska Av @ 123Rd Av,28.059302,-82.451343
479,479,Nebraska Av @ 120th Av,28.056993,-82.451353
480,480,Nebraska Av @ Fowler Av,28.054186,-82.451332
482,482,Nebraska Av @ 113th Av,28.051098,-82.451332
484,484,Metro Rapid Station 30 Nebraska Av,28.046987,-82.451331
485,485,Nebraska Av @ 109th Av,28.047431,-82.451331
487,487,Nebraska Av @ Bougainvillea Av,28.043777,-82.451285
488,488,Nebraska Av @ McEwen Av,28.042396,-82.451361
491,491,Nebraska Av @ Annie St,28.036558,-82.451324
495,495,Nebraska Av @ Yukon St,28.029697,-82.451296
496,496,Nebraska Av @ Seward St,28.028072,-82.451299
497,497,Nebraska Av @ Fairbanks St,28.026718,-82.451307
498,498,Nebraska Av @ Waters Av,28.025417,-82.451346
499,499,Metro Rapid Station 24 Nebraska Av,28.02405,-82.451338
500,500,Nebraska Av @ Bird St,28.022807,-82.451389
501,501,Nebraska Av @ Sitka St,28.021404,-82.451329
503,503,Nebraska Av @ Kirby St,28.018399,-82.451337
504,504,Nebraska Av @ Broad St,28.016277,-82.451334
505,505,Nebraska Av @ Hamilton Av,28.014465,-82.451339
506,506,Nebraska Av @ Flora St,28.012593,-82.451345
507,507,Nebraska Av @ Sligh Av,28.009914,-82.451377
508,508,Nebraska Av @ Knollwood St,28.008134,-82.451343
509,509,Nebraska Av @ Lambright St,28.006678,-82.451347
510,510,Nebraska Av @ Jean St,28.004542,-82.451354
512,512,Nebraska Av @ Idlewild Av,28.001899,-82.451345
513,513,Nebraska Av @ Henry Av,27.999848,-82.451273
514,514,Nebraska Av @ Powhattan Av,27.998906,-82.451248
518,518,Nebraska Av @ Frierson Av,27.994374,-82.451187
521,521,Nebraska Av @ New Orleans Av,27.990457,-82.451185
522,522,Nebraska Av @ Osborne Av,27.988561,-82.451202
523,523,Nebraska Av @ Cayuga St,27.987051,-82.451204
524,524,Nebraska Av @ Chelsea St,27.985481,-82.451206
525,525,Nebraska Av @ North Bay St,27.983429,-82.451211
526,526,Metro Rapid Station 14 Nebraska Av,27.98183,-82.451231
528,528,Nebraska Av @ Lake Av,27.977988,-82.451227
529,529,Nebraska Av @ Emily St,27.975488,-82.451226
532,532,Nebraska Av @ Floribraska Av,27.97069,-82.451249
538,538,Nebraska Av @ Palm Av,27.962702,-82.451309
541,541,Nebraska Av @ 7th Av,27.960623,-82.451275
546,546,Nebraska Av @ Cass St,27.953618,-82.451312
548,548,Nebraska Av @ Twiggs St,27.951379,-82.450884
551,551,Florida Av @ Palm Av,27.962103,-82.459369
553,553,Florida Av @ Frances St,27.964938,-82.459359
554,554,Florida Av @ Columbus Dr,27.96713,-82.45934
556,556,Florida Av @ Floribraska Av,27.970716,-82.45933
557,557,Florida Av @ Plymouth St,27.973053,-82.459321
558,558,Florida Av @ 26th Av,27.974439,-82.459311
559,559,Florida Av @ Lake Av,27.977726,-82.459302
562,562,Florida Av @ M L King Jr Blvd,27.981169,-82.459368
563,563,Florida Av @ Ida St,27.982565,-82.459369
564,564,Florida Av @ Chelsea St,27.984983,-82.459374
566,566,Florida Av @ Osborne Av,27.988591,-82.459376
569,569,Florida Av @ Wilder Av,27.992324,-82.459375
570,570,Florida Av @ Frierson Av,27.994185,-82.459373
571,571,Florida Av @ Hillsborough Av,27.995839,-82.459316
572,572,Florida Av @ Comanche Av,27.99775,-82.459317
573,573,Florida Av @ Henry Av,27.999525,-82.459317
574,574,Florida Av @ Idlewild Av,28.001527,-82.459328
575,575,Florida Av @ Hanna Av,28.003265,-82.459338
576,576,Florida Av @ Fern St,28.004895,-82.459349
577,577,Florida Av @ Lambright St,28.006281,-82.459369
579,579,Florida Av @ Hiawatha St,28.009496,-82.45939
580,580,Florida Av @ Sligh Av,28.011063,-82.459411
581,581,Florida Av @ Flora St,28.01233,-82.459411
582,582,Florida Av @ Hamilton Av,28.014223,-82.459392
583,583,Florida Av @ Broad St,28.016016,-82.459402
585,585,Florida Av @ Kirby St,28.017619,-82.459402
587,587,Florida Av @ Bird St,28.0226,-82.459394
588,588,Florida Av @ Waters Av,28.024125,-82.459445
590,590,Florida Av @ Seward St,28.027933,-82.459314
592,592,Florida Av @ Floriland Av,28.037297,-82.459265
593,593,Florida Av @ Linebaugh Av,28.040665,-82.459266
595,595,Florida Av @ Bougainvillea Av,28.042947,-82.459277
596,596,Florida Av @ 109th Av,28.047124,-82.459335
597,597,Florida Av @ Fowler Av,28.05515,-82.459302
598,598,Florida Av @ Fowler Av,28.055006,-82.459511
599,599,Florida Av @ 122nd Av,28.058134,-82.459293
600,600,Florida Av @ 124th Av,28.059992,-82.459287
601,601,Florida Av @ 127th Av,28.062348,-82.459277
602,602,Florida Av @ 130th Av,28.06427,-82.459272
605,605,Florida Av @ Fletcher Av,28.069922,-82.459273
608,608,Florida Av @ 143Rd Av,28.07667,-82.459356
610,610,Florida Av @ 145th Av,28.0785,-82.459422
611,611,Florida Av @ Garland Ct,28.080365,-82.45945
624,624,Florida Av @ Fletcher Av,28.0708,-82.459456
626,626,Florida Av @ 131St Av,28.065111,-82.459424
629,629,Florida Av @ 122nd Av,28.05773,-82.459449
632,632,Florida Av @ 109th Av,28.047393,-82.459491
633,633,Florida Av  @ Bougainvillea Av,28.043663,-82.4595
634,634,Florida Av @ Linebaugh Av,28.040013,-82.4596
637,637,Florida Av @ Floriland Av,28.037007,-82.45962
639,639,Florida Av @ Wood St,28.027073,-82.459668
640,640,Florida Av @ Bird St,28.022509,-82.459576
642,642,Florida Av @ Hollywood St,28.019675,-82.459575
643,643,Florida Av @ Kirby St,28.017719,-82.459585
644,644,Florida Av @ Broad St,28.016315,-82.459585
645,645,Florida Av @ Flora St,28.012616,-82.459549
646,646,Florida Av @ Hamilton Av,28.014407,-82.459552
647,647,Florida Av @ Sligh Av,28.010972,-82.459593
648,648,Florida Av @ Hiawatha St,28.009566,-82.459566
649,649,Florida Av @ Knollwood St,28.008105,-82.459531
650,650,Florida Av @ North St,28.00609,-82.4596
651,651,Florida Av @ Fern St,28.005118,-82.459526
652,652,Florida Av @ Hanna Av,28.003503,-82.459506
653,653,Florida Av @ Idlewild Av,28.00185,-82.459487
654,654,Florida Av @ Henry Av,27.999515,-82.459479
656,656,Florida Av @ Hillsborough Av,27.995439,-82.459505
657,657,Florida Av @ Wilder Av,27.992588,-82.459488
661,661,22nd St @ 17th Av,27.96772,-82.434662
662,662,22nd St @ 19th Av,27.968716,-82.434642
663,663,22nd St @ 21St Av,27.970229,-82.434672
664,664,22nd St @ 23Rd Av,27.972249,-82.434662
665,665,22nd St @ 26th Av,27.974459,-82.434672
667,667,22nd St @ Lake Av,27.97733,-82.434682
668,668,22nd St @ M L King Jr Blvd,27.981308,-82.434744
670,670,22nd St @ North Bay St,27.983189,-82.434641
671,671,22nd St @ Chelsea St,27.984892,-82.434661
672,672,22nd St @ Cayuga St,27.986431,-82.434651
674,674,22nd St @ Mc Berry St,27.993595,-82.434671
675,675,22nd St @ Hillsborough Av,27.996593,-82.43463
677,677,22nd St @ Henry Av,27.999418,-82.43462
680,680,22nd St @ Hanna Av,28.003231,-82.43464
682,682,22nd St @ Diana St,28.00689,-82.434629
683,683,22nd St @ Sligh Av,28.010376,-82.434599
685,685,22nd St @ Busch Blvd,28.033278,-82.434547
687,687,22nd St @ Okara Rd,28.036891,-82.434547
688,688,22nd St @ Linebaugh Av,28.03968,-82.434557
690,690,22nd St @ Bougainvillea Av,28.043411,-82.434536
691,691,22nd St @ 109th Av,28.047024,-82.434526
692,692,22nd St @ 111th Av,28.049016,-82.434526
695,695,22nd St @ Fowler Av,28.053675,-82.434559
698,698,22nd St @ 131St Av,28.065299,-82.434529
701,701,22nd St @ 132nd Av,28.067261,-82.434484
702,702,22nd St @ 133Rd Av,28.068131,-82.434484
703,703,22nd St @ Fletcher Av,28.068897,-82.434525
705,705,22nd St @ Aimee Ct,28.078308,-82.434707
708,708,22nd St @ Rae Ct,28.079114,-82.434565
715,715,22nd St @ Fletcher Av,28.06986,-82.434677
717,717,22nd St @ 131St Av,28.065156,-82.434615
720,720,22nd St @ 115th Av,28.051947,-82.434624
722,722,22nd St @ 111th Av,28.049577,-82.434708
723,723,22nd St @ 109th Av,28.047312,-82.434633
725,725,22nd St @ Bougainvillea Av,28.043693,-82.434643
727,727,22nd St @ Diana St,28.007188,-82.434802
731,731,22nd St @ Henry Av,27.99981,-82.434753
732,732,22nd St @ Hillsborough Av,27.996819,-82.434786
733,733,22nd St @ Giddens Av,27.995398,-82.434779
734,734,22nd St @ Shadowlawn Av,27.993441,-82.434853
737,737,22nd St @ Osborne Av,27.988968,-82.434775
738,738,22nd St @ Chelsea St,27.985279,-82.434773
743,743,22nd St @ 31St Av,27.978556,-82.434807
744,744,22nd St @ Lake Av,27.977283,-82.43481
753,753,22nd St @ Chapin St,27.943709,-82.434795
754,754,22nd St @ Flagler St,27.941635,-82.434795
755,755,22nd St @ Oakwood Av,27.939642,-82.434775
760,760,15th St @ 11th Av,27.963038,-82.442864
763,763,15th St @ 15th Av,27.965873,-82.442874
764,764,15th St @ Columbus Dr,27.966715,-82.442874
765,765,15th St @ 17th Av,27.967327,-82.442925
766,766,15th St @ 19th Av,27.968626,-82.442928
767,767,15th St @ 21St Av,27.970374,-82.442933
768,768,15th St @ 24th Av,27.972222,-82.442949
769,769,15th St @ 26th Av,27.974069,-82.442854
770,770,15th St @ 28th Av,27.975899,-82.442824
771,771,15th St @ Rodney St,27.977402,-82.442814
772,772,15th St @ 32nd Av,27.979485,-82.44289
774,774,15th St @ North Bay St,27.983198,-82.442845
775,775,15th St @ Chelsea St,27.985019,-82.442855
776,776,15th St @ Cayuga St,27.986875,-82.442855
777,777,15th St @ Osborne Av,27.988623,-82.442845
778,778,15th St @ New Orleans Av,27.990117,-82.442835
779,779,15th St @ Ellicott St,27.991186,-82.442855
780,780,15th St @ Wilder Av,27.992409,-82.442865
781,781,15th St @ Frierson Av,27.994129,-82.442855
782,782,15th St @ Hillsborough Av,27.995588,-82.442845
783,783,15th St @ Comanche Av,27.997797,-82.442845
784,784,15th St @ Henry Av,27.99959,-82.442856
785,785,15th St @ Idlewild Av,28.001492,-82.442856
786,786,15th St @ Hanna Av,28.003168,-82.442846
787,787,15th St @ North St,28.005033,-82.442846
788,788,15th St @ Diana St,28.007252,-82.442866
789,789,15th St @ Escort Av,28.009625,-82.442866
790,790,15th St @ Sligh Av,28.010403,-82.442876
791,791,15th St @ Poinsettia Av,28.041627,-82.442797
792,792,15th St @ Bougainvillea Av,28.043429,-82.442797
793,793,15th St @ Charm Ln,28.045638,-82.442787
794,794,15th St @ 109th Av,28.04706,-82.442787
797,797,15th St @ Fowler Av,28.053987,-82.442767
799,799,15th St @ 122nd Av,28.057863,-82.442757
801,801,15th St @ 127th Av,28.061756,-82.442747
806,806,15th St @ 131St Av,28.06536,-82.442747
807,807,15th St @ 127th Av,28.062077,-82.442864
808,808,15th St @ 124th Av,28.060313,-82.44287
809,809,15th St @ 122nd Av,28.058403,-82.442881
810,810,15th St @ Fowler Av S,28.053306,-82.442921
811,811,15th St @ Fowler Av N,28.054805,-82.442925
813,813,15th St @ 113th Av,28.051046,-82.442909
815,815,15th St @ Poinsettia Av,28.041864,-82.44292
816,816,15th St @ Seneca Av,28.045873,-82.442916
817,817,15th St @ Bougainvillea Av,28.043723,-82.442919
818,818,15th St @ 109th Av,28.047349,-82.442913
821,821,15th St @ Diana St,28.007116,-82.443048
822,822,15th St @ North St,28.00526,-82.443038
823,823,15th St @ Hanna Av,28.003466,-82.443028
824,824,15th St @ Idlewild Av,28.001655,-82.443028
825,825,15th St @ Henry Av,27.999808,-82.443048
826,826,15th St @ Comanche Av,27.997997,-82.443028
827,827,15th St @ Hillsborough Av,27.996312,-82.443028
828,828,15th St @ Frierson Av,27.994474,-82.443028
829,829,15th St @ Wilder Av,27.992508,-82.443048
830,830,15th St @ Ellicott St,27.991313,-82.443048
831,831,15th St @ New Orleans Av,27.990317,-82.443027
832,832,15th St @ Osborne Av,27.988881,-82.44298
833,833,15th St @ Cayuga St,27.986386,-82.443037
834,834,15th St @ Chelsea St,27.985254,-82.443037
835,835,15th St @ North Bay St,27.983407,-82.443027
836,836,15th St @ M L King Jr Blvd,27.981725,-82.442996
837,837,15th St @ 31St Av,27.978801,-82.442998
838,838,Busch Blvd @ Busch Plaza,28.032765,-82.402543
839,839,Busch Blvd @ Temple St,28.032741,-82.407279
840,840,Busch Blvd @ 46th St,28.032732,-82.409661
841,841,Busch Blvd @ 42nd St,28.032734,-82.411901
842,842,Busch Blvd @ 40th St,28.032724,-82.41583
847,847,Busch Blvd @ 26th St,28.032674,-82.430231
849,849,Busch Blvd @ 22nd St,28.032698,-82.433939
851,851,Busch Blvd @ 19th St,28.032667,-82.437362
852,852,Busch Blvd @ Elmer St,28.032695,-82.439792
855,855,Busch Blvd @ 12th St,28.032907,-82.446895
857,857,Busch Blvd @ Ola Av,28.03304,-82.463815
858,858,Busch Blvd @  N Boulevard,28.033259,-82.467549
859,859,Busch Blvd @ Florida Av,28.032864,-82.459974
862,862,Busch Blvd @ 12th St,28.032644,-82.447265
867,867,Busch Blvd @ 22nd St,28.032391,-82.43478
869,869,Busch Blvd @ 26th St,28.032408,-82.43022
874,874,Busch Blvd @ 37th Av,28.032452,-82.417887
878,878,Busch Blvd @ 46th St,28.032459,-82.410205
879,879,Busch Blvd @ Temple Av,28.032458,-82.407043
881,881,Fletcher Av @ Livingston Av,28.069296,-82.427179
886,886,Fletcher Av @ 19th St,28.069272,-82.438499
887,887,Fletcher Av @ Winward Dr,28.069281,-82.440081
888,888,Fletcher Av @ 15th St,28.069272,-82.443832
889,889,Fletcher Av @ Cecelia St,28.06928,-82.445667
890,890,Fletcher Av @ 12th St,28.06928,-82.446762
893,893,Fletcher Av @ Summit Av,28.069316,-82.453028
894,894,Fletcher Av @ Central Av,28.069343,-82.45615
898,898,Fletcher Av @ Ola Av,28.069403,-82.463249
899,899,Fletcher Av @  N Boulevard,28.069348,-82.467274
900,900,Fletcher Av @ Rome Av,28.069443,-82.47535
910,910,Fletcher Av @ Reseda Ct,28.06584,-82.49302
913,913,Fletcher Av @ Paddock Av,28.065716,-82.490289
917,917,Fletcher Av @ Armenia Av,28.066084,-82.483617
920,920,Fletcher Av @ Rome Av,28.069306,-82.47605
921,921,Fletcher Av @ Forest Hills Dr,28.069303,-82.473856
923,923,Fletcher Av @ N Boulevard,28.069082,-82.467876
924,924,Fletcher Av @ Ola Av,28.069259,-82.46362
928,928,Fletcher Av @ Summit Av,28.069201,-82.453374
932,932,Fletcher Av @ 15th St,28.069163,-82.443041
933,933,Metro Rapid Station 37 Fletcher Av,28.069118,-82.442342
935,935,Fletcher Av @ 19th St,28.069147,-82.43886
937,937,Fletcher Av @ 22nd St,28.069109,-82.43419
938,938,Fletcher Av @ Livingston Av East,28.069132,-82.429987
941,941,N Boulevard @ Laurel St,27.955358,-82.468326
943,943,N Boulevard @ West St,27.970491,-82.467619
944,944,N Boulevard @ Virginia Av,27.97963,-82.46762
947,947,N Boulevard @ Lowry Ln,28.013555,-82.467719
950,950,N Boulevard @ Kirby St,28.017961,-82.467711
951,951,N Boulevard @ Hollywood St,28.019437,-82.467681
952,952,N Boulevard @ Ola Av,28.020524,-82.467682
953,953,N Boulevard @ Sitka St,28.021955,-82.467672
954,954,N Boulevard @ Waters Av South,28.025034,-82.467632
955,955,N Boulevard @ Waters Av North,28.02613,-82.467613
956,956,N Boulevard @ Yukon St,28.028855,-82.467644
957,957,N Boulevard @ Humphrey St,28.030784,-82.467655
960,960,N Boulevard @ Patbur Av,28.03667,-82.467657
961,961,N Boulevard @ Linebaugh Av,28.039767,-82.467637
963,963,N Boulevard @ Bougainvillea Av,28.043525,-82.467608
965,965,N Boulevard @ Seneca Av,28.045372,-82.467609
966,966,N Boulevard @ 109th Av,28.047183,-82.467589
968,968,N Boulevard @ 116th Av,28.053522,-82.46751
1003,1003,N Boulevard @ Cliff Circle,28.045318,-82.467791
1004,1004,N Boulevard @ Newport Circle,28.042221,-82.467811
1006,1006,N Boulevard @ Linebaugh Av,28.040455,-82.467783
1008,1008,N Boulevard @ Perdiz St,28.038547,-82.467761
1010,1010,N Boulevard @ Forest Hills Dr,28.034613,-82.467833
1011,1011,N Boulevard @ El Portal Dr,28.031997,-82.467804
1012,1012,N Boulevard @ Humphrey St,28.031034,-82.46778
1013,1013,N Boulevard @ Yukon St,28.029072,-82.467836
1014,1014,N Boulevard @ Waters Av,28.025972,-82.467774
1015,1015,N Boulevard @ Sitka St,28.021873,-82.467854
1017,1017,N Boulevard @ Kirby St,28.018187,-82.467834
1021,1021,N Boulevard @ Lowry Park,28.01366,-82.467912
1023,1023,N Boulevard @ Virginia Av,27.979856,-82.467692
1024,1024,N Boulevard @ Indiana Av,27.97813,-82.46769
1025,1025,N Boulevard @ Peninsular St,27.97639,-82.46768
1026,1026,N Boulevard @ Plymouth St,27.973905,-82.46771
1029,1029,N Boulevard @ Cypress St,27.952612,-82.468536
1032,1032,Himes Av @ Beach St,27.962982,-82.501307
1033,1033,Himes Av @ St John St,27.964612,-82.501322
1034,1034,Himes Av @ Columbus Dr,27.966463,-82.501394
1035,1035,Himes Av @ Columbus Dr,27.967159,-82.501354
1037,1037,Himes Av @ Leroy St,27.971757,-82.501397
1038,1038,Himes Av @ Tampa Bay Blvd,27.973689,-82.501372
1040,1040,Himes Av @ Woodlawn Av,27.976126,-82.501372
1048,1048,Himes Av @ Sunrise Villas Ct,28.005061,-82.500764
1049,1049,Himes Av @ Lambright St,28.006863,-82.500755
1051,1051,Himes Av @ Sligh Av,28.010712,-82.500717
1053,1053,Himes Av @ Hamilton St,28.014325,-82.500679
1055,1055,Himes Av @ Townhouse Ct,28.018708,-82.500652
1056,1056,Himes Av @ Sitka St,28.021343,-82.500623
1058,1058,Himes Av @ Waters Av,28.025264,-82.500657
1061,1061,Himes Av @ Kenyon Av,28.032472,-82.500642
1064,1064,Himes Av @ Humphrey St,28.028475,-82.500805
1065,1065,Himes Av @ Kenyon Av,28.032529,-82.500801
1068,1068,Himes Av @ Waters Av,28.025735,-82.500801
1071,1071,Himes Av @ Townhouse Ct,28.01888,-82.500824
1075,1075,Himes Av @ Sligh Av,28.010865,-82.500889
1077,1077,Himes Av @ Lambright St,28.007515,-82.500928
1081,1081,Himes Av @ Hillsborough Av,27.996249,-82.501021
1082,1082,Himes Av @ Hillsborough Av,27.995751,-82.501051
1085,1085,Himes Av @ M L King Blvd,27.982586,-82.501429
1095,1095,Himes Av @ Palmetto St,27.962502,-82.501494
1096,1096,Himes Av @ Pine St,27.961358,-82.501497
1097,1097,Himes Av @ Spruce St,27.959659,-82.501514
1104,1104,M L King Jr Blvd @ Lake Av,27.981499,-82.403075
1107,1107,M L King Jr Blvd @ 39th St,27.981529,-82.416124
1108,1108,M L King Jr Blvd @ 37th St,27.981524,-82.418155
1109,1109,M L King Jr Blvd @ 36th St,27.981524,-82.419785
1110,1110,M L King Jr Blvd @ 34th St,27.981553,-82.422126
1111,1111,M L King Jr Blvd @ 31St St,27.981552,-82.42531
1113,1113,M L King Jr Blvd @ 26th St,27.981531,-82.430488
1114,1114,M L King Jr Blvd @ 24th St,27.981544,-82.432597
1116,1116,M L King Jr Blvd @ 20th St,27.981553,-82.43741
1119,1119,M L King Jr Blvd @ 15th St,27.98156,-82.44273
1120,1120,M L King Jr Blvd @ 13th St,27.981563,-82.444863
1121,1121,M L King Jr Blvd @ 12th St,27.981572,-82.446932
1122,1122,M L King Jr Blvd @ 10th St,27.981553,-82.449062
1124,1124,M L King Jr Blvd @ Central Av,27.98159,-82.455079
1125,1125,M L King Jr Blvd @ Branch Av,27.981588,-82.45719
1129,1129,M L King Jr Blvd @ Highland Av,27.981588,-82.462436
1130,1130,M L King Jr Blvd @ Lynn Av,27.981593,-82.46529
1131,1131,M L King Jr Blvd @ N Boulevard,27.981639,-82.467422
1133,1133,M L King Jr Blvd @ Myrtle Av,27.981619,-82.469571
1134,1134,M L King Jr Blvd @ Poplar Av,27.981627,-82.471543
1135,1135,M L King Jr Blvd @ Riverside Dr,27.981632,-82.473047
1136,1136,M L King Jr Blvd @ 1931,27.981342,-82.479417
1140,1140,M L King Jr Blvd @ Tampania Av,27.981384,-82.48629
1149,1149,M L King Jr Blvd @ Gomez Av,27.981175,-82.491601
1150,1150,M L King Jr Blvd @ Habana Av Es,27.981158,-82.488107
1152,1152,M L King Jr Blvd @ Armenia Av   Ws,27.981151,-82.484906
1153,1153,M L King Blvd @ Armenia Av Es,27.981151,-82.484177
1154,1154,M L King Jr Blvd @ Howard Av,27.981197,-82.483336
1156,1156,M L King Jr Blvd @ St Isabel St,27.98118,-82.479012
1157,1157,M L King Jr Blvd @ Poplar Av,27.981482,-82.471791
1158,1158,M L King Jr Blvd @ Myrtle Av,27.981464,-82.469714
1160,1160,M L King Jr Blvd @ Lynn Av,27.981515,-82.465738
1161,1161,M L King Jr Blvd @ Highland Av,27.981505,-82.462247
1163,1163,M L King Jr Blvd @ Suwanee Av,27.981376,-82.458108
1165,1165,M L King Jr Blvd @ Central Av,27.98135,-82.455586
1166,1166,M L King Jr Blvd @ Nebraska Av,27.981332,-82.451393
1167,1167,M L King Jr Blvd @ 10th St,27.981341,-82.449458
1168,1168,M L King Jr Blvd @ 12th St,27.981369,-82.44722
1169,1169,M L King Jr  Blvd @ 13th St,27.981378,-82.445063
1170,1170,M L King Jr Blvd @ 15th St,27.981314,-82.443148
1171,1171,M L King Jr Blvd @ 17th St,27.981278,-82.440211
1178,1178,M L King Jr Blvd @ 31St St,27.98135,-82.425394
1179,1179,M L King Jr Blvd @ 34th St,27.98134,-82.42269
1180,1180,M L King Jr Blvd @ 35th St,27.981322,-82.42033
1181,1181,M L King Jr Blvd @ 37th St,27.981331,-82.418365
1184,1184,M L King Jr Blvd @ 42nd St,27.981375,-82.412754
1185,1185,M L King Jr Blvd @ 50th St,27.98139,-82.402525
1186,1186,M L King Jr Blvd @ Phillips St,27.981389,-82.399639
1188,1188,M L King Jr Blvd @ 54th St,27.981396,-82.395456
1190,1190,M L King Jr Blvd @ Carroway St,27.981403,-82.391323
1196,1196,Hillsborough Av @ Harney Rd,27.99633,-82.382835
1198,1198,Hillsborough Av @ 50th St,27.996192,-82.402004
1199,1199,Hillsborough Av @ 48th St,27.996188,-82.403625
1200,1200,Hillsborough Av @ 46th St,27.996189,-82.406637
1202,1202,Hillsborough Av @ 43Rd St,27.996192,-82.409904
1203,1203,Hillsborough Av @ 40th St,27.996146,-82.413591
1204,1204,Hillsborough Av @ 37th St,27.996147,-82.4182
1206,1206,Hillsborough Av @ 36th St,27.996156,-82.420114
1207,1207,Hillsborough Av @ 34th St,27.996157,-82.42215
1208,1208,Hillsborough Av @ 32nd St,27.996166,-82.424136
1209,1209,Hillsborough Av @ 30th St,27.996157,-82.426263
1212,1212,Hillsborough Av @ 22nd St,27.996131,-82.4346
1213,1213,Hillsborough Av @ 20th St,27.996131,-82.436484
1214,1214,Hillsborough Av @ 19th St,27.996122,-82.438388
1215,1215,Hillsborough Av @ 15th St,27.996122,-82.442724
1216,1216,Hillsborough Av @ 13th St,27.996131,-82.445246
1217,1217,Hillsborough Av @ 11th St,27.996131,-82.447434
1219,1219,Hillsborough Av @ Central Av,27.996243,-82.45561
1220,1220,Hillsborough Av @ Florida Av,27.996299,-82.460303
1225,1225,Hillsborough Av @ Habana Av,27.99621,-82.488429
1227,1227,Hillsborough Av @ MacDill Av,27.996199,-82.49242
1228,1228,Hillsborough Av @ Lincoln Av,27.996195,-82.497458
1233,1233,Hillsborough Av @ Lois Av (Hooters),27.996267,-82.514812
1234,1234,Hillsborough Av @4427 Hesperides St,27.996309,-82.519859
1236,1236,Hillsborough Av @ Anderson Rd,27.996322,-82.5223
1238,1238,Hillsborough Av @ Hoover Blvd,27.99642,-82.534204
1240,1240,Hillsborough @ 5555 Crown Bowling,27.996432,-82.537866
1241,1241,Hillsborough Av @ Benjamin Dr,27.996469,-82.540496
1242,1242,Hillsborough Av @ Beaumont Ctr Blvd,27.996524,-82.548751
1244,1244,Hillsborough Av @ Golden Dr,27.99662,-82.553584
1245,1245,Hillsborough Av @ Sawyer Rd,27.996639,-82.556358
1246,1246,Hillsborough Av @ Hanley Rd,27.996691,-82.563689
1248,1248,Hillsborough Av @ Ambassador Dr,27.996705,-82.565084
1249,1249,Hillsborough Av @ Town 'N Country,27.996726,-82.568107
1250,1250,Hillsborough Av @ Halifax Dr,27.996755,-82.572013
1251,1251,Hillsborough Av @ Webb Rd,27.996777,-82.574756
1254,1254,Hillsborough Av @ Memorial Hwy,27.996887,-82.581503
1257,1257,Hillsborough Av @ Webb Rd,27.996566,-82.575417
1258,1258,Hillsborough Av @ Halifax Dr,27.996538,-82.572097
1259,1259,Hillsborough Av @ Town 'N Country,27.996518,-82.569248
1261,1261,Hillsborough Av @ Kelly Rd,27.996483,-82.564521
1269,1269,Hillsborough Av @ Hoover Blvd,27.996147,-82.533345
1272,1272,Hillsborough Av @ Lois Av,27.995962,-82.513803
1274,1274,Hillsborough Av @ Lois Av,27.995979,-82.512933
1277,1277,Hillsborough Av @ Himes Av,27.995939,-82.500511
1278,1278,Hillsborough Av @ Lincoln Av,27.995952,-82.49709
1280,1280,Hillsborough Av @ MacDill Av,27.996036,-82.492177
1281,1281,Hillsborough Av @ Gomez Av,27.996083,-82.490201
1282,1282,Hillsborough Av @ Habana Av,27.996081,-82.488218
1283,1283,Hillsborough Av @ Armenia Av,27.996022,-82.484752
1284,1284,Hillsborough Av @ Howard Av,27.99595,-82.481581
1285,1285,Hillsborough Av @ Mendenhall Dr,27.995924,-82.478877
1287,1287,Hillsborough Av @ Rome Av,27.995916,-82.476496
1289,1289,Hillsborough Av @ Florida Av,27.995975,-82.459752
1290,1290,Hillsborough Av @ Central Av,27.99593,-82.455558
1291,1291,Hillsborough Av @ Nebraska Av,27.996031,-82.451324
1293,1293,Hillsborough Av @ 12th St,27.995993,-82.445942
1294,1294,Hillsborough Av @ 15th St,27.995991,-82.443133
1295,1295,Hillsborough Av @ 19th St,27.995994,-82.43905
1297,1297,Hillsborough Av @ 22nd St,27.99599,-82.434999
1298,1298,Hillsborough Av @ 30th St,27.995999,-82.426632
1301,1301,Hillsborough Av @ 32nd St,27.995997,-82.424601
1302,1302,Hillsborough Av @ 34th St,27.996,-82.422638
1303,1303,Hillsborough Av @ 36th St,27.996002,-82.42049
1304,1304,Hillsborough Av @ 37th St,27.996004,-82.418513
1305,1305,Hillsborough Av @ 40th St Ws,27.996002,-82.41553
1306,1306,Hillsborough Av @ 40th St Es,27.996001,-82.413184
1307,1307,Hillsborough Av @ 43Rd St,27.995998,-82.410105
1308,1308,Hillsborough Av @ 44th St,27.996,-82.408603
1310,1310,Hillsborough Av @ 46th St,27.996002,-82.406746
1311,1311,Hillsborough Av @ 50th St,27.995925,-82.401982
1313,1313,Hillsborough Av @ Harney Rd,27.996026,-82.382938
1314,1314,Hillsborough Av @ Walton Way,27.996024,-82.380689
1316,1316,Hillsborough Av @ 6813,27.996031,-82.375938
1317,1317,Hillsborough Av @ Orient Rd,27.996029,-82.373507
1320,1320,Westshore Blvd @ McCoy St,27.869635,-82.526904
1321,1321,Westshore Blvd @ Everett St,27.871767,-82.526804
1328,1328,Westshore Blvd @ Wallace Av,27.885216,-82.526847
1329,1329,Westshore Blvd @ Pearl Av,27.887602,-82.526739
1334,1334,Westshore Blvd @ Gandy Blvd,27.894205,-82.526793
1336,1336,Westshore Blvd @ Coachman Av,27.897377,-82.526669
1338,1338,Westshore Blvd @ Fair Oaks Av,27.900221,-82.526651
1339,1339,Westshore Blvd @ Wallcraft Av,27.902903,-82.526624
1341,1341,Westshore Blvd @ Bay Vista Av,27.906399,-82.526627
1342,1342,Westshore Blvd @ Euclid Av,27.908628,-82.526599
1360,1360,Westshore Blvd @ Gray St,27.948711,-82.524018
1370,1370,Westshore Blvd @ Gray St,27.948421,-82.524362
1391,1391,Westshore Blvd @ Fair Oaks Av,27.900684,-82.526787
1396,1396,Westshore Blvd @ Gandy Blvd,27.894187,-82.526876
1402,1402,Westshore Blvd @ Everett St,27.87193,-82.52697
1412,1412,Westshore Blvd @ Loughman St,27.863489,-82.52699
1418,1418,Waters Av @ Semmes St,28.025382,-82.441955
1419,1419,Waters Av @ Mulberry St,28.025345,-82.443944
1421,1421,Waters Av @ 12th St,28.025329,-82.44718
1422,1422,Waters Av @ Edison Av,28.025395,-82.468523
1423,1423,Waters Av @ El Portal Dr,28.025388,-82.469545
1424,1424,Waters Av @ Willow Av,28.025386,-82.471543
1425,1425,Waters Av @ Orleans Av,28.025386,-82.473176
1426,1426,Waters Av @ Rome Av,28.025367,-82.475728
1427,1427,Waters Av @ Jones Av,28.025383,-82.478018
1429,1429,Waters Av @ Armenia Av,28.025439,-82.484001
1430,1430,Waters Av @ Habana Av,28.025409,-82.488115
1431,1431,Waters Av @ Twin Lakes Blvd,28.025501,-82.492348
1433,1433,Waters Av @ Sevilla Dr,28.025522,-82.498195
1435,1435,Waters Av @ Dale Mabry Hwy E/S,28.025579,-82.503707
1437,1437,Waters Av @ Grady Av,28.025575,-82.5088
1438,1438,Waters Av @ Lake Melena Way,28.025566,-82.510896
1439,1439,Waters Av @ Lois Av,28.025568,-82.512898
1440,1440,Waters Av @ Camden St,28.025573,-82.514478
1441,1441,Waters Av @ Manhattan Av,28.025578,-82.516945
1442,1442,Waters Av @ Cypress Lake Apts,28.025632,-82.519708
1443,1443,Waters Av @ Sunstate St,28.025645,-82.528673
1447,1447,Waters Av @ Florida Mining Blvd N/S,28.025701,-82.53325
1448,1448,Waters Av @ Anderson Rd,28.025761,-82.537978
1450,1450,Waters Av @ Benjamin Rd,28.025738,-82.541523
1451,1451,Waters Av @ Henderson Rd,28.025822,-82.55026
1453,1453,Waters Av @ Twelve Oaks Blvd,28.025839,-82.551385
1454,1454,Waters Av @ J R Manor Dr,28.02585,-82.554502
1460,1460,Waters Av @ Pinehurst Dr,28.026115,-82.571033
1467,1467,Waters Av @ Rustic Dr,28.025639,-82.559785
1468,1468,Waters Av @ Twelve Oaks Blvd,28.025512,-82.551678
1472,1472,Waters Av @ Oak Trace Way,28.025496,-82.550077
1473,1473,Waters Av @ Sitka St,28.02549,-82.547006
1475,1475,Waters Av @ Anderson Rd,28.025426,-82.538231
1476,1476,Waters Av @ 5400 thompson Center,28.025428,-82.536458
1480,1480,Waters Av @ Savarese Blvd,28.025361,-82.53028
1481,1481,Waters Av @ Woodland Center Blvd,28.02531,-82.525351
1482,1482,Waters Av @ Woodland Corporate Blvd,28.025295,-82.522504
1484,1484,Waters Av @ Manhattan Av,28.02528,-82.517417
1485,1485,Waters Av @ thatcher Av,28.025273,-82.514904
1486,1486,Waters Av @ Lois Av,28.025265,-82.513262
1487,1487,Waters Av @ Grady Av,28.025259,-82.509209
1489,1489,Waters Av @ Dale Mabry Hwy,28.025262,-82.503899
1490,1490,Waters Av @ Himes Av,28.0253,-82.501042
1491,1491,Waters Av @ Sevilla Dr,28.025302,-82.498407
1492,1492,Waters Av @ Lago Vista Dr,28.025258,-82.495235
1493,1493,Waters Av @ Palma Vista Lane,28.02525,-82.492682
1494,1494,Waters Av @ Habana Av,28.025171,-82.488598
1495,1495,Waters Av @ Armenia Av,28.025209,-82.484545
1496,1496,Waters Av @ Saulray St,28.025219,-82.481474
1497,1497,Waters Av @ Fremont Av,28.02522,-82.478799
1499,1499,Waters Av @ Rome Av,28.025221,-82.476094
1500,1500,Waters Av @ Orleans Av,28.025222,-82.473378
1502,1502,Waters Av @ El Portal Dr,28.025295,-82.469658
1503,1503,Waters Av @ Klondyke St,28.0252,-82.445856
1504,1504,Waters Av @ 14th St,28.02521,-82.444336
1505,1505,Waters Av @ Marks St,28.025228,-82.442624
1513,1513,Sligh Av @ 53Rd St,28.010776,-82.39767
1515,1515,Sligh Av @ 50th St,28.010768,-82.401621
1517,1517,Sligh Av @ Bream St,28.010708,-82.403707
1518,1518,Sligh Av @ Trout St,28.010694,-82.408377
1520,1520,Sligh Av @ Rowlett Park Dr,28.01072,-82.429928
1522,1522,Sligh Av @ 22nd St,28.010666,-82.43468
1523,1523,Sligh Av @ 21St St,28.01063,-82.436088
1524,1524,Sligh Av @ 19th St,28.010648,-82.438601
1525,1525,Sligh Av @ 17th St,28.010675,-82.441124
1526,1526,Sligh Av @ 15th St,28.010684,-82.442826
1527,1527,Sligh Av @ 13th St,28.01067,-82.44496
1528,1528,Sligh Av @ 12th St,28.01067,-82.447
1529,1529,Sligh Av @ 10th St,28.010655,-82.44907
1530,1530,Sligh Av @ Nebraska Av,28.010722,-82.45074
1531,1531,Sligh Av @ Central Av,28.010746,-82.455237
1532,1532,Sligh Av @ Dixon Av,28.010722,-82.456962
1533,1533,Sligh Av @ Florida Av,28.010746,-82.45928
1534,1534,Sligh Av @ Duncan Rd,28.010736,-82.460882
1535,1535,Sligh Av @ Ola Av,28.010722,-82.463322
1536,1536,Sligh Av @ N Boulevard,28.010804,-82.467638
1537,1537,Sligh Av @ Willow Av,28.010815,-82.472319
1538,1538,Sligh Av @ Oregon Av,28.010805,-82.474306
1540,1540,Sligh Av @ Packwood Av,28.010813,-82.477263
1541,1541,Sligh Av @ Fremont Av,28.010798,-82.478746
1542,1542,Sligh Av @ Albany Av,28.010795,-82.480165
1543,1543,Sligh Av @ Howard Av,28.010813,-82.482341
1544,1544,Sligh Av @ Armenia Av,28.010828,-82.484133
1545,1545,Sligh Av @ Tampania Av,28.010822,-82.486427
1547,1547,Sligh Av @ Anderson Rd,28.010943,-82.531608
1548,1548,Sligh Av @ Anderson Rd,28.01078,-82.531517
1549,1549,Sligh Av @ Tampania Av,28.010723,-82.486405
1550,1550,Sligh Av @ Armenia Av Ws,28.010674,-82.484466
1551,1551,Sligh Av @ Rome Av,28.01066,-82.476371
1557,1557,Sligh Av @ Oregon Av,28.01066,-82.474314
1559,1559,Sligh Av @ N Boulevard,28.010692,-82.468028
1562,1562,Sligh Av @ Florida Av,28.010659,-82.459775
1563,1563,Sligh Av @ Dixon Av,28.01063,-82.4572
1564,1564,Sligh Av @ Central Av,28.010583,-82.455551
1565,1565,Sligh Av @ Nebraska Av,28.010566,-82.45083
1567,1567,Sligh Av @ 12th St,28.01056,-82.447177
1568,1568,Sligh Av @ 13th St,28.010548,-82.445207
1569,1569,Sligh Av @ 15th St,28.01053,-82.44314
1570,1570,Sligh Av @ 17th St,28.010512,-82.441377
1573,1573,Sligh Av @ 22nd St,28.010467,-82.434984
1574,1574,Sligh Av @ 24th St,28.010566,-82.432775
1577,1577,Sligh Av @ 30th St,28.010548,-82.426717
1579,1579,Sligh Av @ 47th St,28.010589,-82.40614
1581,1581,Sligh Av @ 50th St,28.010596,-82.402107
1583,1583,Sligh Av @ 53Rd St,28.010613,-82.397953
1585,1585,Sligh Av @ 56th St Ws,28.010629,-82.39388
1587,1587,Harney Rd @ Sligh Av,28.010271,-82.376719
1591,1591,40th St @ Osborne Av,27.989177,-82.413983
1592,1592,40th St @ Ellicott St,27.990364,-82.413977
1594,1594,40th St @ Hillsborough Av,27.994742,-82.413905
1597,1597,40th St @ Idlewild Av,28.000937,-82.414096
1598,1598,40th St @ Paris St,28.002558,-82.414105
1601,1601,40th St @ Diana St,28.006823,-82.413962
1607,1607,40th St @ River Hills Dr,28.021213,-82.41487
1610,1610,40th St @ Bird St,28.023278,-82.415487
1611,1611,40th St @ Regnas Av,28.025135,-82.416257
1612,1612,40th St @ Seward St,28.027163,-82.416236
1615,1615,40th St @ Busch Blvd,28.032415,-82.416225
1616,1616,Mckinley Dr @ Busch Blvd,28.034706,-82.416406
1617,1617,Mckinley Dr @ Linebaugh Av,28.039471,-82.416137
1618,1618,Mckinley Dr @ Bougainvillea Av,28.044336,-82.416145
1619,1619,Mckinley Dr @ Fowler Av,28.053616,-82.416055
1622,1622,Mckinley Dr @ Bougainvillea Av,28.044154,-82.416414
1630,1630,40th St @ Seward St,28.027444,-82.41653
1631,1631,40th St @ Regnas Av,28.02499,-82.4165
1634,1634,40th St @ Hanlon St,28.018433,-82.414394
1638,1638,40th St @ Norfolk St,28.011669,-82.415329
1639,1639,40th St @ River Grove Dr,28.00714,-82.414296
1640,1640,40th St @ Fern St,28.005565,-82.414256
1644,1644,40th St @ Powhattan Av,27.999108,-82.414258
1645,1645,40th St @ Hillsborough Av,27.995358,-82.414249
1648,1648,40th St @ Ellicott St,27.990768,-82.41421
1649,1649,40th St @ Osborne Av,27.988999,-82.414214
1652,1652,30th St @ Osborne Av,27.988695,-82.426345
1653,1653,30th St @ Ellicott St,27.990434,-82.426365
1655,1655,30th St @ Shadowlawn St,27.993712,-82.426365
1656,1656,30th St @ Hillsborough Av,27.995677,-82.426374
1658,1658,30th St @ Powhatan Av,27.999155,-82.426374
1659,1659,30th St @ Idlewild Av,28.00112,-82.426394
1661,1661,30th St @ Hanna Av,28.003203,-82.426414
1664,1664,30th St @ Diana St,28.006817,-82.426413
1665,1665,30th St @ Pocahontas Av,28.008628,-82.426393
1666,1666,30th St @ Sligh Av,28.01052,-82.426372
1668,1668,30th St @ Busch Blvd,28.031954,-82.426321
1669,1669,30th St @ Annie St,28.036023,-82.426126
1670,1670,30th St @ Bougainvillea  Av,28.043362,-82.426114
1680,1680,30th St @ 113th Av,28.051045,-82.426262
1681,1681,30th St @ 109th Av,28.04653,-82.426272
1682,1682,30th St @ Bougainvillea Av,28.043801,-82.426278
1685,1685,30th St @ Poinsettia Av,28.041227,-82.426273
1688,1688,30th St @ Annie St,28.036449,-82.426286
1689,1689,30th St @ Busch Blvd,28.032145,-82.426491
1692,1692,30th St @ Diana Ct,28.007161,-82.426531
1695,1695,30th St @ Hanna Av,28.003593,-82.426606
1697,1697,30th St @ Henry Av,27.999502,-82.426527
1700,1700,30th St @ Hillsborough Av N/S,27.996329,-82.426557
1704,1704,30th St @ Ellicott St,27.990615,-82.426547
1705,1705,30th St @ Osborne Av,27.98913,-82.426537
1706,1706,30th St @ Cayuga St,27.98663,-82.426528
1707,1707,30th St @ Chelsea Av,27.985208,-82.426548
1708,1708,Dale Mabry Hwy @ Interbay Blvd,27.872389,-82.50618
1713,1713,Dale Mabry Hwy @ Bay Av,27.878975,-82.506327
1715,1715,Dale Mabry Hwy @ Wisconsin Av,27.881865,-82.506309
1716,1716,Dale Mabry Hwy @ Oklahoma Av,27.883767,-82.50627
1717,1717,Dale Mabry Hwy @ Wallace Av,27.88518,-82.506251
1718,1718,Dale Mabry Hwy @ Rogers Av,27.886675,-82.506232
1720,1720,Dale Mabry Hwy @ Ballast Point Blvd,27.889882,-82.506174
1721,1721,Dale Mabry Hwy @ Marlin Av,27.891187,-82.506165
1722,1722,Dale Mabry Hwy @ Gandy Blvd,27.894448,-82.506127
1726,1726,Dale Mabry Hwy @ El Prado Blvd,27.911114,-82.506015
1727,1727,Dale Mabry Hwy @ Sevilla St,27.912764,-82.505969
1728,1728,Dale Mabry Hwy @ Corona St,27.913978,-82.50595
1729,1729,Dale Mabry Hwy @ San Luis St,27.9155,-82.505931
1731,1731,Dale Mabry Hwy @ San Juan St,27.91829,-82.505882
1732,1732,Dale Mabry Hwy @ Bay To Bay Blvd,27.91944,-82.505863
1733,1733,Dale Mabry Hwy @ Barcelona St,27.921741,-82.505845
1736,1736,Dale Mabry Hwy @ Neptune St,27.930718,-82.50572
1738,1738,Dale Mabry Hwy @ Jetton Av,27.932665,-82.505681
1739,1739,Dale Mabry Hwy @ Inman Av,27.935283,-82.505663
1740,1740,Dale Mabry Hwy @ Swann Av,27.937421,-82.505654
1741,1741,Dale Mabry Hwy @ Dale Av,27.939277,-82.505626
1742,1742,Dale Mabry Hwy @ Azeele St,27.941026,-82.505627
1743,1743,Dale Mabry Hwy @ Cleveland St,27.942837,-82.505598
1744,1744,Dale Mabry Hwy @ Kennedy Blvd,27.944521,-82.505604
1745,1745,Dale Mabry Hwy @ North B St,27.947172,-82.505545
1746,1746,Dale Mabry Hwy @ Gray St,27.948867,-82.505536
1747,1747,Dale Mabry Hwy @ Cass St,27.950095,-82.505521
1748,1748,Dale Mabry Hwy @ Cypress St,27.951912,-82.5055
1749,1749,Dale Mabry Hwy @ Chestnut St,27.958316,-82.505468
1751,1751,Dale Mabry Hwy @ Cherry St,27.961525,-82.505435
1754,1754,Dale Mabry Hwy @ Lake Carroll Way,28.043554,-82.504562
1755,1755,Dale Mabry Hwy @ Floyd  Rd,28.04781,-82.504271
1756,1756,Dale Mabry Hwy @ 11007,28.049276,-82.504196
1757,1757,Dale Mabry @ Hudson Ln @ Taco Bell,28.051043,-82.504041
1796,1796,Dale Mabry Hwy @ Palmetto St,27.964285,-82.505643
1797,1797,Dale Mabry Hwy @ Cherry St,27.961223,-82.505675
1798,1798,Dale Mabry Hwy @ Spruce St,27.958866,-82.505709
1799,1799,Dale Mabry Hwy @ Laurel St,27.955577,-82.505709
1800,1800,Dale Mabry Hwy @ Grace St,27.952841,-82.50577
1802,1802,Dale Mabry Hwy @ Cass St,27.950178,-82.505769
1803,1803,Dale Mabry Hwy @ Gray St,27.948947,-82.505781
1804,1804,Dale Mabry Hwy @ North B St,27.946791,-82.505793
1805,1805,Dale Mabry Hwy @ Roland St,27.944025,-82.505782
1806,1806,Dale Mabry Hwy @ Cleveland St,27.943063,-82.50578
1807,1807,Dale Mabry Hwy @ Azeele St,27.94127,-82.505799
1808,1808,Dale Mabry Hwy @ Dale Av,27.939531,-82.505808
1809,1809,Dale Mabry Hwy @ Swann Av,27.93775,-82.505824
1810,1810,Dale Mabry Hwy @ Inman Av,27.935853,-82.505835
1813,1813,Dale Mabry Hwy @ Angeles St,27.927606,-82.505919
1815,1815,Dale Mabry Hwy @ San Carlos St,27.924018,-82.505965
1816,1816,Dale Mabry Hwy @ Barcelona St,27.921928,-82.506002
1817,1817,Dale Mabry Hwy @ Bay To Bay Blvd,27.920009,-82.506022
1818,1818,Dale Mabry Hwy @ San Juan St,27.918512,-82.506036
1820,1820,Dale Mabry Hwy @ San Luis St,27.915722,-82.50608
1821,1821,Dale Mabry Hwy @ Corona St,27.914038,-82.506107
1822,1822,Dale Mabry Hwy @ El Prado Blvd,27.911767,-82.506163
1823,1823,Dale Mabry Hwy @ Cam St,27.903996,-82.506337
1824,1824,Dale Mabry Hwy @ Fair Oaks Av,27.901873,-82.50632
1825,1825,Dale Mabry Hwy @ Gandy Blvd,27.895119,-82.506401
1828,1828,Dale Mabry Hwy @ Rogers Av,27.886963,-82.50653
1829,1829,Dale Mabry Hwy @ Wallace Av,27.885502,-82.506551
1830,1830,Dale Mabry Hwy @ Oklahoma Av,27.884108,-82.506566
1831,1831,Dale Mabry Hwy @ Wisconsin Av,27.881738,-82.506663
1833,1833,Dale Mabry Hwy @ Bay Av,27.879188,-82.506608
1835,1835,Dale Mabry Hwy @ Mango Av,27.875198,-82.50653
1836,1836,Dale Mabry Hwy @ Interbay Blvd,27.872833,-82.506514
1839,1839,Kennedy Blvd @ Hyde Park Av,27.945778,-82.46349
1841,1841,Kennedy Blvd @ Brevard Av,27.94473,-82.466349
1842,1842,Kennedy Blvd @ N Boulevard,27.944707,-82.468349
1843,1843,Kennedy Blvd @ Delaware Av,27.944704,-82.470041
1844,1844,Kennedy Blvd @ Willow Av,27.944727,-82.472379
1845,1845,Kennedy Blvd @ Oregon Av,27.94474,-82.474568
1846,1846,Kennedy Blvd @ Rome Av,27.94476,-82.476655
1847,1847,Kennedy Blvd @ Fremont Av,27.944775,-82.478777
1848,1848,Kennedy Blvd @ Albany Av,27.944796,-82.480859
1849,1849,Kennedy Blvd @ Howard Av,27.944812,-82.482788
1851,1851,Kennedy Blvd @ Arrawana Av,27.944854,-82.487634
1853,1853,Kennedy Blvd @ Gomez Av,27.944859,-82.491029
1855,1855,Kennedy Blvd @ MacDill Av,27.944872,-82.493906
1857,1857,Kennedy Blvd @ Lincoln Av,27.944883,-82.497304
1858,1858,Kennedy Blvd @ Glen Av,27.944893,-82.499556
1859,1859,Kennedy Blvd @ Himes Av,27.944896,-82.501384
1860,1860,Kennedy Blvd @ Sterling Av,27.944898,-82.503265
1861,1861,Kennedy Blvd @ Church Av,27.944964,-82.507614
1863,1863,Kennedy Blvd @ Clark Av,27.944971,-82.511785
1864,1864,Kennedy Blvd @ Lois Av,27.944978,-82.513749
1865,1865,Kennedy Blvd @ Hubert Av,27.944986,-82.515885
1866,1866,Kennedy Blvd @ Manhattan Av,27.944993,-82.51791
1867,1867,Kennedy Blvd @ Hesperides St,27.944992,-82.519965
1868,1868,Kennedy Blvd @ Trask St,27.945,-82.521818
1869,1869,Kennedy Blvd @ Westshore Blvd,27.944987,-82.523947
1870,1870,Kennedy Blvd @ Renellie Dr,27.944681,-82.523508
1871,1871,Kennedy Blvd @ Trask St,27.944673,-82.522
1872,1872,Kennedy Blvd @ Hesperides St,27.944675,-82.520299
1873,1873,Kennedy Blvd @ Manhattan Av,27.944676,-82.518264
1874,1874,Kennedy Blvd @ Hubert Av,27.944669,-82.516199
1875,1875,Kennedy Blvd @ Lois Av,27.94467,-82.514306
1876,1876,Kennedy Blvd @ Clark Av,27.944681,-82.512068
1878,1878,Kennedy Blvd @ Church Av,27.944675,-82.507543
1879,1879,Kennedy Blvd @ Sterling Av,27.944659,-82.503797
1880,1880,Kennedy Blvd @ Himes Av,27.944651,-82.501763
1883,1883,Kennedy Blvd @ Henderson Blvd,27.944645,-82.495678
1884,1884,Kennedy Blvd @ MacDill Av,27.944674,-82.493441
1885,1885,Kennedy Blvd @ Gomez Av,27.944675,-82.491396
1888,1888,Kennedy Blvd @ Tampania Ave,27.944668,-82.485575
1890,1890,Kennedy Blvd @ Howard Av,27.944651,-82.483267
1891,1891,Kennedy Blvd @ Albany Av,27.944625,-82.481029
1892,1892,Kennedy Blvd @ Fremont Av,27.944608,-82.478934
1893,1893,Kennedy Blvd @ Rome Av,27.944581,-82.476919
1894,1894,Kennedy Blvd @ Oregon Av,27.944582,-82.474884
1895,1895,Kennedy Blvd @ Willow Av,27.944555,-82.4729
1896,1896,Kennedy Blvd @ Delaware Av,27.944529,-82.47043
1897,1897,Kennedy Blvd @ S Boulevard,27.944512,-82.468031
1898,1898,Kennedy Blvd @ Brevard Av,27.944494,-82.466785
1899,1899,Kennedy Blvd @ Hyde Park Av,27.94531,-82.464164
1902,1902,Swann Av @ Delaware Av,27.937346,-82.470589
1903,1903,Swann Av @ Newport Av,27.937355,-82.471581
1904,1904,Swann Av @ Orleans Av,27.937363,-82.473626
1905,1905,Swann Av @ Oregon Av,27.93739,-82.474628
1906,1906,Swann Av @ Melville Av,27.937383,-82.479807
1907,1907,Swann Av @ Albany Av,27.937407,-82.480786
1908,1908,Swann Av @ Audubon Av,27.937446,-82.486989
1910,1910,Swann Av @ Gomez Av,27.93747,-82.491065
1911,1911,Swann Av @ MacDill Av,27.937516,-82.493089
1912,1912,Swann Av @ Matanzas Av,27.937502,-82.495237
1913,1913,Swann Av @ Lincoln Av,27.937509,-82.497385
1916,1916,Swann Av @ Glen Av,27.937433,-82.499692
1917,1917,Swann Av @ Lincoln Av,27.937407,-82.497627
1919,1919,Swann Av @ MacDill Av,27.937382,-82.493629
1922,1922,Swann Av @ Audubon Av,27.937322,-82.48715
1923,1923,Swann Av @ Parkland Blvd,27.937323,-82.485561
1925,1925,Swann Av @ Albany Av,27.937252,-82.481076
1926,1926,Swann Av @ Rome Av,27.937263,-82.477037
1927,1927,Swann Av @ Dakota Av,27.937263,-82.475509
1929,1929,Swann Av @ Orleans Av,27.937209,-82.473899
1930,1930,Swann Av @ Newport Av,27.937192,-82.471804
1931,1931,Swann Av @ Delaware Av,27.937192,-82.470802
1932,1932,Swann Av @ Edison Av,27.937183,-82.469901
1951,1951,Euclid Av @ Waverly Circle,27.908729,-82.497992
1952,1952,Euclid Av @ Lynwood Av,27.908738,-82.498852
1953,1953,Euclid Av @ Himes Av,27.908745,-82.501797
1955,1955,Euclid Av @ Grady Av,27.90875,-82.510125
1956,1956,Euclid Av @ Clark Av,27.908768,-82.511587
1957,1957,Euclid Av @ Lois Av,27.908784,-82.514264
1959,1959,Euclid Av @ Coolidge Av,27.908834,-82.517472
1960,1960,Euclid Av @ Royal Palm Circle E/S,27.908874,-82.51938
1961,1961,Euclid Av @ Royal Palm Cirle W/S,27.908838,-82.520982
1964,1964,Euclid Av @ Westshore Blvd,27.908909,-82.526549
1969,1969,Euclid Av @ Manhattan Av,27.90867,-82.518342
1972,1972,Euclid Av @ Lois Av,27.908646,-82.514466
1974,1974,Euclid Av @ Grady Av,27.908613,-82.510317
1976,1976,Euclid Av @ Dale Mabry Hwy,27.908588,-82.506785
1978,1978,Euclid Av @ Himes Av,27.908581,-82.502748
1979,1979,Euclid Av @ Lynwood Av,27.908565,-82.49957
1987,1987,56th St @ Hanna Av,28.003837,-82.393327
1991,1991,56th St @ Sligh Av,28.011564,-82.393391
1992,1992,56th St @ Kenny Dr,28.01599,-82.39333
1993,1993,56th St @ Neal Dr,28.017885,-82.393286
1994,1994,56th St @ Puritan Rd,28.020663,-82.393196
1997,1997,56th St @ Bullard Pkwy,28.032399,-82.393322
2000,2000,56th St @ Temple Heights Rd,28.036392,-82.393319
2001,2001,56th St @ Mission Hills Av,28.039661,-82.393358
2003,2003,56th St @ Deer Park Av,28.042622,-82.393377
2005,2005,56th St @ Whiteway Dr,28.04753,-82.393466
2006,2006,56th St @ 113th Av @ City Hall,28.049894,-82.393464
2012,2012,56th St @ Whiteway Dr,28.04782,-82.393851
2019,2019,56th St @ Temple Heights Rd,28.03603,-82.393634
2021,2021,56th St @ Busch Blvd,28.032734,-82.393636
2022,2022,56th St @ Grove Hill Rd,28.029628,-82.393637
2025,2025,56th St @ Puritan Rd Ss,28.019833,-82.393493
2026,2026,56th St @ Kirby St,28.018169,-82.393526
2028,2028,56th St @ Sligh Av,28.011694,-82.393634
2029,2029,56th St @ Diana St,28.007159,-82.393636
2031,2031,56th St @ Hanna Av,28.003771,-82.393629
2032,2032,56th St @ Henry Av,28.000241,-82.393621
2037,2037,Cypress St @ Willow Av,27.952064,-82.472731
2039,2039,Cypress St @ Rome Av,27.952075,-82.476615
2040,2040,Cypress St @ Fremont Av,27.952107,-82.479008
2045,2045,Cypress St @ Excelda Av,27.952051,-82.490288
2046,2046,Cypress St @ MacDill Av,27.952101,-82.492312
2050,2050,Cypress St @ Himes Av,27.952205,-82.501292
2051,2051,Cypress St @ Dale Mabry Hwy,27.95223,-82.505221
2052,2052,Cypress St @ Church Av,27.952267,-82.507598
2053,2053,Cypress St @ Grady Av,27.952258,-82.509596
2055,2055,Cypress St @ Lois Av,27.952315,-82.513584
2056,2056,Cypress St @ Hubert Av,27.952322,-82.516226
2057,2057,Cypress St @ Manhattan Av,27.952339,-82.517856
2058,2058,Cypress St @ Trask St,27.952399,-82.521886
2060,2060,Cypress St @ Occident St,27.952432,-82.525946
2061,2061,Cypress St @ Ward St,27.952458,-82.528031
2062,2062,Cypress St @ Sherrill St,27.952483,-82.530158
2063,2063,Cypress St @ O'Brien St,27.952509,-82.532081
2064,2064,Cypress St @ Frontage Rd,27.952552,-82.533995
2071,2071,Cypress St @ Trask St,27.952145,-82.522351
2073,2073,Cypress St @ Manhattan Av,27.952103,-82.51817
2074,2074,Cypress St @ Hubert Av,27.952078,-82.516084
2075,2075,Cypress St @ Lois Av,27.952071,-82.51333
2077,2077,Cypress St @ Grady Av,27.9521,-82.50998
2078,2078,Cypress St @ Church Av,27.952117,-82.50802
2079,2079,Cypress St @ Dale Mabry Hwy,27.952093,-82.506243
2080,2080,Cypress St @ Himes Av,27.952033,-82.501829
2086,2086,Cypress St @ MacDill Av E/S,27.951938,-82.492524
2087,2087,Cypress St @ Excelda Av,27.951912,-82.490307
2088,2088,Cypress St @ Tampania Av,27.951995,-82.4873
2095,2095,Cypress St @ Edison Av,27.951848,-82.46938
2096,2096,Cypress St @ Willow Av,27.951901,-82.472792
2097,2097,Manhattan Av @ Interbay Blvd,27.86632,-82.518515
2100,2100,Manhattan Av @ Rembrandt Dr,27.872598,-82.518561
2101,2101,Manhattan Av @ Mango Av,27.875669,-82.518554
2102,2102,Manhattan Av @ Bay Av,27.87913,-82.518527
2103,2103,Manhattan Av @ Iowa Av,27.880783,-82.518454
2105,2105,Manhattan Av @ Oklahoma Av,27.883735,-82.51843
2107,2107,Manhattan Av @ Pearl Av,27.88746,-82.51839
2112,2112,Manhattan Av @ Gandy Blvd,27.89451,-82.518384
2113,2113,Manhattan Av @ Aegean Dr,27.89694,-82.518311
2115,2115,Manhattan Av @ La Villa Lane,27.898443,-82.518332
2118,2118,Manhattan Av @ Bay View Av,27.904929,-82.518348
2119,2119,Manhattan Av @ Bay  Vista Av,27.907022,-82.517986
2135,2135,Manhattan Av @ Lambright St,28.007277,-82.517451
2137,2137,Manhattan Av @ Hanna Av,28.003918,-82.517468
2147,2147,Manhattan Av @ Wallcraft Av,27.903394,-82.51847
2149,2149,Manhattan Av @ Fair Oaks Av,27.900047,-82.518516
2156,2156,Manhattan Av @ Paul Av,27.891507,-82.518423
2158,2158,Manhattan Av @ Pearl Av,27.887763,-82.518515
2160,2160,Manhattan Av @ Oklahoma Av,27.883985,-82.518531
2162,2162,Manhattan Av @ Iowa Av,27.881168,-82.518569
2165,2165,Manhattan Av @ Varn Av,27.872557,-82.518707
2166,2166,Manhattan Av @ McCoy St,27.869828,-82.518635
2168,2168,Manhattan Av @ Interbay Blvd,27.866125,-82.518669
2169,2169,Macdill Av @ Helen Av,27.868609,-82.493979
2170,2170,Macdill Av @ N Adams St,27.870548,-82.49397
2172,2172,Macdill Av @ Averill Av,27.874842,-82.493953
2173,2173,Macdill Av @ Binnicker Av,27.876744,-82.493934
2174,2174,Macdill Av @ Bay Av,27.878565,-82.493915
2175,2175,Macdill Av @ Interbay Blvd,27.879997,-82.493895
2176,2176,Macdill Av @ Wyoming Av,27.882506,-82.493846
2177,2177,Macdill Av @ Leila Av,27.884059,-82.493881
2178,2178,Macdill Av @ Tyson Av,27.885894,-82.493818
2179,2179,Macdill Av @ Puritan Av,27.887576,-82.493849
2180,2180,Macdill Av @ Ballast Point Blvd,27.889581,-82.49379
2183,2183,Macdill Av @ Gandy Blvd,27.893458,-82.493732
2184,2184,Macdill Av @ Villa Rosa Park,27.895488,-82.493743
2186,2186,Macdill Av @ Alline Av,27.897958,-82.493789
2188,2188,Macdill Av @ Lawn Av,27.901258,-82.493717
2189,2189,Macdill Av @ Wallcraft Av,27.903106,-82.493718
2193,2193,Macdill Av @ Bay Court Av,27.907028,-82.493619
2242,2242,Macdill Av @ Wallcraft Av,27.90336,-82.49389
2243,2243,Macdill Av @ Lawn Av,27.901593,-82.493899
2245,2245,Macdill Av @ Alline Av,27.898286,-82.493849
2246,2246,Macdill Av @ Oakellar Av,27.89644,-82.493875
2248,2248,Macdill Av @ Gandy Blvd,27.893863,-82.493887
2249,2249,Macdill Av @ Paul Av,27.891692,-82.493761
2250,2250,Macdill Av @ Ballast Point Blvd,27.889771,-82.493918
2251,2251,Macdill Av @ Paxton Av,27.88827,-82.49395
2252,2252,Macdill Av @ Pearl Av,27.887223,-82.493939
2253,2253,Macdill Av @ Tyson Av,27.886249,-82.49394
2255,2255,Macdill Av @ Wyoming Av,27.882705,-82.49395
2256,2256,Macdill Av @ Interbay Blvd,27.880315,-82.494011
2260,2260,Macdill Av @ Hartnett Av,27.872273,-82.494082
2261,2261,Macdill Av @ N Adams St,27.870801,-82.494142
2265,2265,Interbay Blvd @ Trask St,27.865974,-82.522439
2267,2267,Interbay Blvd @ Westshore Blvd,27.86601,-82.526837
2268,2268,Interbay Blvd @ Fitzgerald St,27.865861,-82.526333
2270,2270,Interbay Blvd @ Trask St,27.865836,-82.522732
2272,2272,Idaho St @ Kissimmee St,27.859648,-82.528483
2276,2276,Idaho St @ O'Brien St,27.859676,-82.532537
2279,2279,Henderson Blvd @ Sterling Av,27.935511,-82.50377
2281,2281,Henderson Blvd @ Sterling Av,27.936,-82.503477
2283,2283,Henderson Av @ Nebraska Av,27.959653,-82.450978
2289,2289,Henderson Av @ Florida Av,27.95944,-82.459611
2297,2297,Platt St @ Westland Av,27.941808,-82.48205
2301,2301,Platt St @ Dakota Av,27.941719,-82.475905
2303,2303,Platt St @ Delaware Av,27.94173,-82.470785
2304,2304,Platt St @ S Boulevard,27.941631,-82.468718
2306,2306,Platt St @ Hyde Park Av,27.941596,-82.464162
2307,2307,Platt St @ Plant Av,27.941551,-82.462695
2308,2308,Platt St @ Parker St,27.94156,-82.461308
2316,2316,7th Av @ 47th St,27.960947,-82.405752
2318,2318,7th Av @ 43Rd St,27.960264,-82.409884
2321,2321,7th Av @ 39th St,27.960251,-82.415403
2326,2326,7th Av @ 31St St,27.960282,-82.425179
2327,2327,7th Av @ 27th St,27.960275,-82.429212
2330,2330,7th Av @ 24th St,27.960293,-82.43209
2332,2332,7th Av @ 10th St,27.960338,-82.448414
2333,2333,7th Av @ Scott St,27.960184,-82.448372
2336,2336,7th Av @ 24th St,27.96013,-82.432101
2338,2338,7th Av @ 31St St,27.96013,-82.425408
2341,2341,7th Av @ 34th St,27.96012,-82.422623
2343,2343,7th Av @ 36th St,27.960111,-82.419646
2345,2345,7th Av @ 39th St,27.960101,-82.415849
2347,2347,7th Av @ 43Rd St,27.960108,-82.41025
2349,2349,7th Av @ 50th St,27.961519,-82.402766
2357,2357,14th Av Se @ 6th St Se,27.705988,-82.426781
2361,2361,14th Av Se @ 6th St Se,27.705834,-82.427144
2363,2363,14th Av Se @ 15th St Se,27.705768,-82.414798
2367,2367,18th Av @ 32nd St,27.96829,-82.424151
2368,2368,18th Av @ 31St St,27.968273,-82.425936
2369,2369,21St St @ Mallory Av,27.970226,-82.435548
2371,2371,21St St @ 17th Av,27.967633,-82.435541
2372,2372,21St St @ Columbus Dr,27.966851,-82.435604
2382,2382,21St Av @ 43Rd St,27.970455,-82.410341
2384,2384,21St Av @ 40th St,27.970489,-82.41375
2386,2386,21St Av @ 38th St,27.970452,-82.417206
2387,2387,21St Av @ 35th St,27.970485,-82.420439
2388,2388,21St Av @ 34th St,27.970499,-82.422134
2391,2391,21St Av @ 29th St,27.970481,-82.42798
2392,2392,21St Av @ 26th St,27.970491,-82.43052
2394,2394,21St Av @ 22nd St,27.970506,-82.434633
2397,2397,21St Av @ 19th St,27.970524,-82.437769
2398,2398,21St Av @ 17th St,27.970533,-82.439923
2400,2400,21St Av @ 15th St,27.970546,-82.442753
2406,2406,21St Av @ 11th St,27.970446,-82.448009
2408,2408,21St Av @ Republica De Cuba,27.970437,-82.444414
2409,2409,21St Av @ 15th St,27.970374,-82.443178
2411,2411,21St Av @ 17th St,27.970383,-82.44008
2412,2412,21St Av @ 19th St,27.970383,-82.437639
2414,2414,21St Av @ 22nd St,27.970383,-82.435158
2416,2416,21St Av @ 26th St,27.970337,-82.430743
2417,2417,21St Av @ 29th St,27.970346,-82.428231
2418,2418,21St Av @ 32nd St,27.970337,-82.42412
2420,2420,21St Av @ 34th St,27.970345,-82.42255
2422,2422,21St Av @ 40th St,27.970317,-82.414793
2432,2432,Gibsonton Dr @ Oak Ridge Av,27.857193,-82.329293
2433,2433,Gibsonton Dr @ Hagadorn Rd,27.85721,-82.33489
2436,2436,Gibsonton Dr @ Vaughn St,27.849772,-82.356348
2437,2437,Gibsonton Dr @ Ray St,27.849834,-82.35831
2438,2438,Gibsonton Dr @ Linda St,27.849838,-82.361278
2439,2439,Gibsonton Dr @ Martin Rd,27.849836,-82.363883
2440,2440,Gibsonton Dr @ River Dr,27.84983,-82.366053
2441,2441,Gibsonton Dr @ Alafia St,27.849835,-82.370363
2443,2443,Gibsonton Dr @ Gloria St,27.849854,-82.372652
2444,2444,Gibsonton Dr @ Davis St,27.849855,-82.37648
2445,2445,Gibsonton Dr @ Ethel St,27.84984,-82.37872
2446,2446,Gibsonton Dr @ Massachusetts St,27.849839,-82.380541
2448,2448,Gibsonton Dr @ Gloria St,27.849659,-82.373003
2451,2451,Gibsonton Dr @ Alafia St,27.849658,-82.37093
2453,2453,Gibsonton Dr @ Vern St,27.849635,-82.366669
2455,2455,Gibsonton Dr @ Sunset Ct,27.84969,-82.36201
2457,2457,Gibsonton Dr @ Ray St,27.849649,-82.358623
2461,2461,Gibsonton Dr @ Kenda Dr,27.85694,-82.335336
2465,2465,Broadway Av @ Locicero Dr,27.966824,-82.378119
2467,2467,Broadway Av @ 66th St,27.966823,-82.380981
2468,2468,Broadway Av @ 62nd St,27.966254,-82.384122
2471,2471,Broadway Av @ 59th St,27.965256,-82.388161
2472,2472,Broadway Av @ 58th St,27.964858,-82.389772
2479,2479,Broadway Av @ 52nd St,27.962668,-82.398108
2481,2481,Broadway Av @ 53Rd St,27.963228,-82.39586
2484,2484,Broadway Av @ 59th St,27.965073,-82.388396
2486,2486,Broadway Av @ 61St St,27.965516,-82.386583
2487,2487,Broadway Av @ 64th St,27.966392,-82.382998
2488,2488,Broadway Av @ 66th St,27.966699,-82.380841
2492,2492,Broadway Av @ 73Rd St,27.966704,-82.374056
2502,2502,Lois Av @ Grace St,27.952739,-82.513808
2503,2503,Lois Av @ Arch St,27.95425,-82.513806
2504,2504,Lois Av @ Laurel St,27.955639,-82.513802
2506,2506,Lois Av @ Spruce St,27.95924,-82.513738
2508,2508,Lois Av @ Cayuga St,27.986342,-82.513461
2509,2509,Lois Av @ Osborne Av,27.988791,-82.513509
2510,2510,Lois Av @ South St,27.991378,-82.513425
2511,2511,Lois Av @ Crest Av,27.993723,-82.513387
2512,2512,Lois Av @ Crest Av,27.994176,-82.51358
2513,2513,Lois Av @ South St,27.991649,-82.513598
2514,2514,Lois Av @ Osborne Av,27.989213,-82.513616
2515,2515,Lois Av @ Cayuga St,27.986614,-82.513634
2516,2516,Lois Av @ Alva St,27.984594,-82.513662
2517,2517,Lois Av @ M L King Jr Blvd,27.981871,-82.513661
2519,2519,Lois Av @ Kentucky Av,27.97858,-82.513738
2520,2520,Lois Av @ Woodlawn Av,27.975927,-82.513776
2522,2522,Lois Av @ Spruce St,27.959034,-82.513899
2523,2523,Lois Av @ Union St,27.958422,-82.513914
2524,2524,Lois Av @ Laurel St,27.956033,-82.513907
2525,2525,Lois Av @ Arch St,27.954511,-82.513916
2526,2526,Lois Av @ Cypress St,27.952441,-82.513964
2546,2546,79th St @ 78th St,27.902299,-82.368227
2547,2547,82nd St @ Dahlia Av,27.896328,-82.365247
2553,2553,83Rd St @ Ash St,27.899579,-82.364586
2559,2559,83Rd St @ Progress Blvd,27.899407,-82.364789
2601,2601,Chelsea St @ 30th St,27.984991,-82.426649
2602,2602,Fir Dr @ 79th St,27.902481,-82.368297
2604,2604,Fir Dr @ 81St St,27.90257,-82.366709
2605,2605,Fir Dr @ 83Rd St,27.903529,-82.364876
2614,2614,Harney Rd @ Hanna Av,28.002735,-82.381151
2616,2616,Harney Rd @ Hillsborough Av,27.996847,-82.384524
2619,2619,50th St @ Acline St,27.954328,-82.401663
2621,2621,50th St @ Uceta Rd,27.958217,-82.401665
2625,2625,50th St @ Sligh Av,28.011004,-82.401844
2634,2634,50th St @ Puritan Rd,28.020023,-82.401961
2635,2635,50th St @ Porpoise Dr,28.017533,-82.402033
2636,2636,50th St @ Dolphin Dr,28.013766,-82.402025
2637,2637,50th St @ Sligh Av,28.010823,-82.402026
2640,2640,50th St @ Acline St,27.954626,-82.401959
2642,2642,50th St @ Adamo Dr,27.952511,-82.401861
2647,2647,Kings Av @ Bloomingdale Av,27.894388,-82.293858
2648,2648,Kings Av @ Southwood Cove,27.903482,-82.293867
2650,2650,Kings Av @ Hickory Lake Dr,27.91454,-82.29379
2655,2655,Kings Av @ Oak Park Place,27.921174,-82.294116
2656,2656,Kings Av @ Tradewind Dr,27.917895,-82.294081
2657,2657,Kings Av @ Calm Dr,27.914272,-82.294087
2658,2658,Kings Av @ Tanglewood Way,27.909987,-82.294115
2660,2660,Kings Av @ Bloomingdale Av,27.894865,-82.294151
2668,2668,Oakfield Dr @ Noland Dr,27.932954,-82.290695
2677,2677,Orient Rd @ 21St Av,27.970362,-82.372929
2678,2678,Orient Rd @ Rhode Island Dr,27.97279,-82.372948
2679,2679,Orient Rd @ M L King Jr Blvd,27.981103,-82.372949
2682,2682,Orient Rd @ King Alfred Dr,27.98316,-82.372899
2683,2683,Orient Rd @ Chelsea St,27.985062,-82.372979
2688,2688,Orient @ Draper  @ Seminole Complex,27.992359,-82.373193
2689,2689,Orient Rd @ Cayuga St @ Fairgrounds,27.987561,-82.3732
2690,2690,Orient Rd @ Chelsea St,27.985342,-82.373161
2691,2691,Orient Rd @ M L King Jr Blvd,27.98172,-82.373235
2692,2692,Orient Rd @ Delano Av,27.977853,-82.373157
2693,2693,Orient Rd @ Waycross Av,27.975978,-82.373148
2694,2694,Orient Rd @ Westinghouse Av,27.974366,-82.373129
2695,2695,Orient Rd @ Rhode Island Dr,27.972826,-82.37313
2696,2696,Orient Rd @ 21St Av,27.970535,-82.373122
2698,2698,Orient Rd @ Broadway Av Ss,27.966405,-82.373105
2700,2700,Orient Rd @ 9th Av,27.962537,-82.373087
2705,2705,Osborne Av @ 39th St,27.988831,-82.416109
2706,2706,Osborne Av @ 37th St,27.988875,-82.418181
2709,2709,Osborne Av @ Webster St,27.988694,-82.421149
2710,2710,Osborne Av @ Troy St,27.988694,-82.419741
2711,2711,Osborne Av @ 37th St,27.988712,-82.41813
2712,2712,Osborne Av @ 39th St,27.988711,-82.416439
2713,2713,Palm River Rd @ 78th St,27.941135,-82.369504
2718,2718,Palm River Rd @ 68th St,27.94115,-82.379072
2724,2724,Palm River Rd @ 56th St,27.942921,-82.395303
2730,2730,Palm River Rd @ Coconut Dr,27.941028,-82.375777
2732,2732,Palm River Rd @ 76th St,27.941035,-82.372962
2733,2733,Palm River Rd @ 78th St,27.940933,-82.369014
2734,2734,Palm Av @ 20th St,27.962525,-82.436498
2736,2736,Palm Av @ 17th St,27.962463,-82.440297
2737,2737,Palm Av @ 15th St,27.962541,-82.442215
2738,2738,Palm Av @  Republica De Cuba,27.962549,-82.443994
2740,2740,Palm Av @ Central Av,27.962311,-82.455231
2741,2741,Palm Av @ Morgan St,27.962313,-82.457902
2742,2742,Palm Av @ Florida Av,27.96232,-82.459282
2743,2743,Palm Av @ Morgan St,27.962167,-82.458184
2744,2744,Palm Av @ Central Av,27.962149,-82.45543
2745,2745,Palm Av @ Mitchell Av,27.962177,-82.452099
2747,2747,Palm Av @ 15th St,27.962304,-82.44336
2748,2748,Palm Av @ 17th St,27.96225,-82.440636
2750,2750,Palm Av @ 20th St,27.962277,-82.436404
2757,2757,Progress Blvd @ Us Hwy  301 F/S,27.893901,-82.340398
2759,2759,Progress Blvd @ 85th St,27.899257,-82.362922
2766,2766,Providence Rd @ Hannaway Dr,27.875041,-82.31834
2767,2767,Providence Rd @ Desoto Rd,27.876717,-82.318338
2768,2768,Providence Rd @ Hackney Dr,27.878928,-82.318345
2770,2770,Providence Rd @ Roberts Lane,27.882189,-82.31837
2771,2771,Providence Rd @ Watson Rd,27.886636,-82.318407
2774,2774,Providence Rd @ Bloomingdale Av,27.893458,-82.318405
2775,2775,Providence Rd @ Providence Park,27.895777,-82.318422
2778,2778,Providence Rd @ Providence Ridge Bl,27.907934,-82.318425
2779,2779,Providence Rd @ Providence Lakes Bl,27.910597,-82.318441
2781,2781,Providence Rd @ Sweetridge Av,27.917627,-82.318462
2782,2782,Providence Rd @ Windingwood Av,27.92073,-82.318483
2785,2785,Providence Rd @ Providence Ridge Bl,27.907135,-82.318831
2790,2790,Providence @ Providence Bapt Church,27.897608,-82.318652
2791,2791,Providence Rd @ Providence Oaks Dr,27.896176,-82.318624
2792,2792,Providence Rd @ Bloomingdale Av F/S,27.893531,-82.318587
2793,2793,Providence Rd @ Watermark 6000,27.891026,-82.318577
2795,2795,Providence Rd @ Watson Rd,27.88653,-82.318516
2796,2796,Providence Rd @ Roberts Lane,27.882005,-82.318485
2798,2798,Providence Rd @ Hackney Dr,27.879011,-82.318459
2799,2799,Providence Rd @ Desoto Rd,27.877261,-82.318529
2800,2800,Providence Rd @ Hannaway Dr,27.875494,-82.318522
2801,2801,Providence Rd @ Dianne Cove,27.872242,-82.318516
2803,2803,Riverview Dr @ North St,27.871725,-82.320975
2804,2804,Riverview Dr @ Capitano St,27.871738,-82.323398
2805,2805,Riverview Dr @ Us Hwy 301,27.871157,-82.326718
2811,2811,Sr 60 @ Lakeside Dr,27.937513,-82.299524
2813,2813,Brandon Blvd @ Hilltop Rd,27.937902,-82.305977
2817,2817,Sr 60 @ Grand Regency Blvd,27.939044,-82.322309
2832,2832,Sr 60 @ Providence Rd,27.937498,-82.313835
2833,2833,Sr 60 @ Lakewood Dr,27.937482,-82.311226
2836,2836,Sr 60 @ Limona Rd,27.937519,-82.30409
2837,2837,Sr 60 @ Pauls Dr,27.937516,-82.302308
2839,2839,Sr 60 @ Buckingham Place,27.937491,-82.296487
2857,2857,Flowers Av @ 79th St,27.894898,-82.367595
2863,2863,Us Hwy 301 @ Balm Riverview Rd,27.866154,-82.326474
2864,2864,Us Hwy 301 @ Riverview Dr,27.871499,-82.326561
2890,2890,Us Hwy 301 @ Moody Rd,27.870548,-82.326752
2893,2893,Us Hwy 41 @ 4th Av,27.715849,-82.433928
2894,2894,Us Hwy 41 @ Shell Point Rd,27.720615,-82.4339
2896,2896,Us Hwy 41 @ 7th Av,27.724041,-82.433646
2904,2904,Us Hwy 41 @ Ellsberry Rd,27.774076,-82.388569
2905,2905,Us Hwy 41 @ Big Bend Rd,27.792819,-82.384173
2907,2907,Us Hwy 41 @ Kracker Av,27.814262,-82.383902
2908,2908,Us Hwy 41 @ Ohio St,27.822255,-82.38189
2910,2910,Us Hwy 41 @ Symmes Rd,27.834701,-82.381597
2914,2914,Us Hwy 41 @ Nundy Av,27.846017,-82.381509
2916,2916,Us Hwy 41 @ Gibsonton Dr,27.849554,-82.38159
2917,2917,Us Hwy 41 @ Gibsonton Dr,27.849284,-82.381841
2918,2918,Us Hwy 41 @ Nundy Av,27.846253,-82.381712
2920,2920,Us Hwy 41 @ Cedar Av,27.842348,-82.381752
2921,2921,Us Hwy 41 @ Beach Av (Twin Oaks),27.840428,-82.38182
2923,2923,Us Hwy 41 @ Isabel Av,27.83139,-82.381934
2924,2924,Us Hwy 41 @ Mabrey Av,27.82664,-82.381727
2926,2926,Us Hwy 41 @ Kracker Av,27.813922,-82.384321
2927,2927,Us Hwy 41 @ Pembroke Rd,27.805505,-82.384438
2929,2929,Us Hwy 41 @ Big Bend Rd,27.792031,-82.384516
2930,2930,Us Hwy 41 @ P.T.G. Packing,27.78461,-82.38461
2931,2931,Us Hwy 41 @ Elsberry Rd,27.774106,-82.388944
2935,2935,Us Hwy 41 @ 7th Av Nw F/S,27.723716,-82.434018
2939,2939,Us Hwy 41 @ 4th Av Sw,27.716266,-82.434261
2940,2940,Nuccio Pkwy @ 7th Av,27.960565,-82.446509
2941,2941,Nuccio Pkwy @ Palm Av,27.96224,-82.44654
2943,2943,Nuccio Pkwy @ 7th Av Ss,27.959723,-82.446934
2944,2944,Nuccio Pkwy @ 7th Av N/S,27.960438,-82.446843
2946,2946,Nuccio Pkwy @ Scott Dr,27.956888,-82.447845
2947,2947,Nuccio Pkwy @ Nebraska Av,27.95399,-82.450651
2950,2950,Nuccio Pkwy @ Nebraska Av,27.953391,-82.450862
2954,2954,Nuccio Pkwy @ 7th Av,27.959949,-82.446539
2956,2956,20th St @ Fairbanks St,28.026758,-82.436615
2958,2958,20th St @ Eskimo Av,28.029538,-82.436625
2959,2959,20th St @ Eskimo Av,28.029719,-82.436807
2961,2961,20th St @ Fairbanks St,28.027012,-82.436807
2972,2972,34th St @ 18th Av,27.968113,-82.422307
2973,2973,34th St @ 21St Av,27.969521,-82.422267
2974,2974,34th St @ 22nd Av,27.971559,-82.422266
2975,2975,34th St @ 24th Av,27.972505,-82.422339
2976,2976,34th St @ 26th Av,27.973992,-82.422354
2977,2977,34th St @ 28th Av,27.975834,-82.422296
2978,2978,34th St @ Lake Av,27.977617,-82.422363
2979,2979,34th St @ 32nd Av,27.979163,-82.422381
2980,2980,34th St @ Lindell Av,27.979982,-82.422315
2981,2981,34th St @ North Bay St,27.982898,-82.422315
2982,2982,34th St @ Genessee St,27.984519,-82.422325
2983,2983,34th St @ Emma St,27.985925,-82.422405
2984,2984,34th St @ Osborne Av,27.988629,-82.422381
2985,2985,34th St @ Lila St,27.988223,-82.422537
2986,2986,34th St @ Emma St,27.985869,-82.422517
2987,2987,34th St @ Genessee St,27.984519,-82.422507
2988,2988,34th St @ North Bay St,27.983143,-82.422497
2989,2989,34th St @  M L King Jr Blvd,27.98125,-82.422487
2990,2990,34th St @ Lindell Av,27.980217,-82.422459
2991,2991,34th St @ Lake Av,27.978096,-82.422525
2992,2992,34th St @ Chipco St,27.975637,-82.4224
2993,2993,34th St @ 26th Av,27.974235,-82.422398
2994,2994,34th St @ 24th Av,27.972755,-82.422395
2995,2995,34th St @ 22nd Av,27.97138,-82.422387
2996,2996,34th St @ 18th Av,27.968447,-82.422426
2997,2997,Columbus Dr @ 13th St,27.966889,-82.445396
2999,2999,Columbus Dr @ 10th St,27.966914,-82.449082
3001,3001,Columbus Dr @ Mitchell Av,27.966906,-82.451929
3003,3003,Columbus Dr @ Central Av,27.966897,-82.45521
3005,3005,Columbus Dr @ Florida Av,27.966906,-82.459014
3006,3006,Columbus Dr @ Tampa St,27.966928,-82.460741
3008,3008,Columbus Dr @ Ola Av,27.966925,-82.463496
3010,3010,Columbus Dr @ N Boulevard,27.966968,-82.467466
3011,3011,Columbus Dr @ Myrtle Av,27.966945,-82.46936
3013,3013,Columbus Dr @ Ridgewood Av,27.966957,-82.472925
3014,3014,Columbus Dr @ Rome Av,27.966664,-82.476875
3015,3015,Columbus Dr @ Fremont Av,27.966684,-82.478962
3017,3017,Columbus Dr @ Howard Av,27.966725,-82.482584
3018,3018,Columbus Dr @ Armenia Av,27.966748,-82.484727
3019,3019,Columbus Dr @ Tampania Av,27.966759,-82.486843
3020,3020,Columbus Dr @ Habana Av,27.966777,-82.488907
3022,3022,Columbus Dr @ MacDill Av,27.966812,-82.492872
3024,3024,Columbus Dr @ Lincoln Av,27.966797,-82.497176
3026,3026,Columbus Dr @ Himes Av,27.966579,-82.500817
3028,3028,Columbus Dr @ Lincoln Av,27.966581,-82.497445
3030,3030,Columbus Dr @ MacDill Av,27.966574,-82.493425
3032,3032,Columbus Dr @ Habana Av,27.966662,-82.48916
3033,3033,Columbus Dr @ Tampania Av,27.966614,-82.487055
3034,3034,Columbus Dr @ Armenia Av,27.966596,-82.485131
3035,3035,Columbus Dr @ Howard Av,27.966561,-82.482984
3037,3037,Columbus Dr @ Fremont Av,27.966535,-82.478802
3038,3038,Columbus Dr @ Rome Av,27.966509,-82.476757
3039,3039,Columbus Dr @ Ridgewood Av,27.966827,-82.473243
3041,3041,Columbus Dr @ Glenwood Dr,27.966801,-82.469213
3042,3042,Columbus Dr @ Ola Av,27.966766,-82.463714
3045,3045,Columbus Dr @ Tampa St,27.966776,-82.461051
3046,3046,Columbus Dr @ Florida Av,27.966776,-82.459583
3047,3047,Columbus Dr @ Central Av,27.966759,-82.455603
3048,3048,Columbus Dr @ Nebraska Av,27.96675,-82.451036
3050,3050,Columbus Dr @ 10th St,27.966751,-82.449163
3052,3052,Columbus Dr @ 13th St,27.966733,-82.445558
3054,3054,Columbus Dr @ 15th St,27.966715,-82.44332
3056,3056,Columbus Dr @ 17th St,27.966715,-82.440545
3057,3057,Columbus Dr @ 19th St,27.966715,-82.438075
3059,3059,Columbus Dr @ 23Rd St,27.966697,-82.433882
3060,3060,Columbus Dr @ 25th St,27.966688,-82.431776
3061,3061,Columbus Dr @ 26th St,27.966678,-82.430763
3062,3062,Columbus Dr @ 27th St,27.966678,-82.429791
3063,3063,Columbus Dr @ 29th St,27.966687,-82.428374
3064,3064,Columbus Dr @ 31St St,27.96666,-82.425862
3067,3067,Columbus Dr @ 37th St,27.96664,-82.41847
3068,3068,Columbus Dr @ 40th St,27.966631,-82.414349
3075,3075,131St Av @ Bruce B Downs @ Va Hosp,28.065622,-82.427307
3077,3077,131St Av @ 23Rd St,28.065554,-82.432328
3079,3079,131St Av @ 20th St,28.065605,-82.436522
3080,3080,131St Av @ 19th St,28.065605,-82.438509
3084,3084,131St Av @ 17th St,28.06546,-82.44077
3085,3085,131St Av @ 19th St,28.065451,-82.438915
3086,3086,131St Av @ Bruce B Downs  @ Va Hosp,28.065459,-82.427307
3104,3104,Alumni Dr @ Leroy Collins @ Eng Bld,28.057316,-82.413653
3105,3105,Alumni Dr @ Laurel Dr,28.058141,-82.416735
3109,3109,Alumni Dr @ Leroy Collins @ Eng Bld,28.0578,-82.415793
3110,3110,Holly Dr @ Magnolia Dr,28.066119,-82.420828
3113,3113,Holly Dr @ Pine Dr @ Crosswalk,28.065757,-82.424618
3114,3114,Holly Dr @ Magnolia Dr,28.065891,-82.420902
3137,3137,Habana Av @ Bel Aire Circle,27.982446,-82.48872
3138,3138,Habana Av @ Eddy Dr,27.984575,-82.48872
3139,3139,Habana Av @ Eddy Dr,27.985195,-82.488708
3140,3140,Habana Av @ Curtis St,27.987434,-82.488671
3141,3141,Habana Av @ Osborne Av,27.988673,-82.488661
3142,3142,Habana Av @ Violet St,27.99045,-82.488615
3143,3143,Habana Av @ Wilder Av,27.9923,-82.488585
3145,3145,Habana Av @ Mohawk Av,27.996714,-82.488551
3146,3146,Habana Av @ Rio Vista Ct,27.99842,-82.488471
3147,3147,Habana Av @ Henry Av,27.999651,-82.488462
3150,3150,Habana Av @ North St,28.005656,-82.488435
3151,3151,Habana Av @ Minnehaha St,28.008345,-82.488396
3153,3153,Habana Av @ Sligh Av,28.009883,-82.488532
3154,3154,Habana Av @ Ralston Beach Cr,28.008288,-82.488533
3156,3156,Habana Av @ Paris St,28.002921,-82.488616
3157,3157,Habana Av @ Idlewild Av,28.00101,-82.488635
3158,3158,Habana Av @ Henry Av,27.999914,-82.488644
3161,3161,Habana Av @ Frierson Av,27.994972,-82.488613
3162,3162,Habana Av @ Wilder Av,27.992877,-82.488714
3164,3164,Habana Av @ Osborne Av,27.988901,-82.488811
3165,3165,Habana Av @ Curtis Av,27.987892,-82.488819
3168,3168,Habana Av @ M L King Jr Blvd,27.981484,-82.488968
3169,3169,Hanley Rd @ Hillsborough Av,27.997273,-82.562748
3172,3172,Hanley Rd @ Hanna Av,28.003857,-82.562575
3173,3173,Hanley Rd @ Jackson Springs Rd,28.00724,-82.562506
3175,3175,Hanley Rd @ Woodbridge Blvd,28.0128,-82.5624
3176,3176,Hanley Rd @ Barry Rd,28.017332,-82.562326
3177,3177,Hanley Rd @ Twelve Oaks Blvd,28.021507,-82.562251
3179,3179,Hanley Rd @ Waters Av,28.025501,-82.562186
3182,3182,Hanley Rd @ Winging Way Dr,28.023508,-82.562548
3183,3183,Hanley Rd @ Nesting Place Ct,28.022086,-82.562566
3185,3185,Hanley Rd @ Barry Rd,28.017819,-82.562576
3186,3186,Hanley Rd @ Woodbridge Blvd,28.013171,-82.562548
3188,3188,Hanley Rd @ Jackson Springs Rd,28.00764,-82.562641
3189,3189,Hanley Rd @ Hanna Av,28.004228,-82.56272
3191,3191,Hanley Rd @ Henry Av,28.00049,-82.56279
3192,3192,Hanley Rd @ Hillsborough Av,27.996829,-82.562945
3196,3196,Kelly Rd @ Swindon Rd,27.986239,-82.564834
3198,3198,Kelly Rd @ New Orleans St,27.991085,-82.56479
3200,3200,Kelly Rd @ Hillsborough Av,27.996305,-82.564795
3201,3201,Kelly Rd @ Hillsborough Av,27.996131,-82.564897
3203,3203,Kelly Rd @ New Orleans St,27.991353,-82.564913
3214,3214,78th St @ Causeway Blvd,27.920652,-82.368798
3215,3215,78th St @ Causeway Blvd,27.923197,-82.368604
3216,3216,78th St @ 24th Av,27.926163,-82.368613
3218,3218,78th St @ Tidewater Trail,27.929725,-82.368606
3220,3220,78th St @ Clair Mel Circle,27.932411,-82.368598
3222,3222,78th St @ Parish Place,27.935963,-82.368589
3224,3224,78th St @ Destin Dr,27.939154,-82.368732
3229,3229,78th St @ Paradise Place,27.929737,-82.368762
3231,3231,78th St @ 24th Av,27.926469,-82.368762
3234,3234,78th St @ 34th Av,27.917853,-82.368791
3238,3238,78th St @ 49th Av,27.903767,-82.368741
3239,3239,78th St @ Madison Av,27.898586,-82.368746
3242,3242,Bay To Bay Blvd @ MacDill Av,27.919771,-82.49341
3243,3243,Bay To Bay Blvd @ Esperanza Av,27.919774,-82.495264
3244,3244,Bay To Bay Blvd @ Ferdinand Av,27.919782,-82.496979
3245,3245,Bay To Bay Blvd @ Concordia Av,27.919792,-82.4986
3246,3246,Bay To Bay Blvd @ Malijo Av,27.91979,-82.500055
3247,3247,Bay To Bay Blvd @ Himes Av,27.919824,-82.501798
3248,3248,Bay To Bay Blvd @ Sterling Av,27.91982,-82.505035
3250,3250,Bay To Bay Blvd @ Sterling Av,27.919668,-82.503627
3251,3251,Bay To Bay Blvd @ Himes Av,27.91966,-82.501947
3252,3252,Bay To Bay Blvd @ Malijo Av,27.919652,-82.50058
3253,3253,Bay To Bay Blvd @ Concordia Av,27.919662,-82.49889
3254,3254,Bay To Bay Blvd @ Ferdinand Av,27.919645,-82.49717
3255,3255,Bay To Bay Blvd @ Esperanza Av,27.91965,-82.4955
3256,3256,Bay To Bay Blvd @ MacDill Av,27.919628,-82.49386
3267,3267,Bearss Av @ 22nd St,28.080264,-82.43491
3270,3270,Cleveland St @ Magnolia Av,27.943181,-82.465631
3272,3272,Cleveland St @ Fielding Av,27.943204,-82.467561
3274,3274,Cleveland St @ Delaware Av,27.94322,-82.470489
3275,3275,Cleveland St @ Willow Av,27.943245,-82.472519
3276,3276,Cleveland St @ Dakota Av,27.943286,-82.475554
3282,3282,Cleveland St @ Moody Av,27.943396,-82.483877
3284,3284,Ferris Av @ Farwell  Dr,27.98235,-82.47945
3285,3285,Ferris Av @ Wishart Blvd,27.982627,-82.483843
3294,3294,Howard Av @ Dekle Av,27.928855,-82.483127
3295,3295,Howard Av @ Southview Av,27.930213,-82.483097
3296,3296,Howard Av @ Marjory Av,27.93092,-82.483057
3297,3297,Howard Av @ Watrous Av,27.93188,-82.482977
3298,3298,Howard Av @ Morrison Av,27.933592,-82.482947
3300,3300,Howard Av @ Bristol Av,27.935023,-82.482938
3301,3301,Howard Av @ Swann Av,27.937179,-82.482898
3303,3303,Howard Av @ Horatio St,27.939633,-82.48291
3307,3307,Howard Av @ Walnut St,27.959921,-82.482848
3309,3309,Howard Av @ Beach St,27.962927,-82.482813
3316,3316,Howard Av @ Swann Av,27.936727,-82.483071
3317,3317,Howard Av @ Bristol Av,27.93523,-82.48306
3318,3318,Howard Av @ Morrison Av,27.933864,-82.483119
3319,3319,Howard Av @ Jetton Av,27.932985,-82.483129
3320,3320,Howard Av @ Watrous Av,27.932097,-82.483169
3322,3322,Howard Av @ Mississippi Av,27.928565,-82.483309
3325,3325,Howard Av @ Palm Dr,27.926333,-82.483625
3326,3326,Hyde Park Av @ Kennedy Blvd,27.945282,-82.463951
3328,3328,Hyde Park Av @ Platt St,27.941886,-82.464001
3329,3329,Hyde Park Av @ Azeele St,27.940618,-82.464031
3331,3331,Spruce St @ Sterling Av,27.959469,-82.503062
3332,3332,Spruce St @ Dale Mabry Hwy,27.959523,-82.506675
3334,3334,Spruce St @ Grady Av,27.959521,-82.509192
3340,3340,Spruce St @ Clark Av,27.959363,-82.511474
3341,3341,Spruce St @ Grady Av,27.959365,-82.508962
3342,3342,Spruce St @ Dale Mabry Hwy,27.959384,-82.506431
3343,3343,Spruce St @ Marie Av,27.959377,-82.504487
3344,3344,Spruce St @ Sterling Av,27.959341,-82.502695
3348,3348,Livingston Av @ Bearss Av,28.081024,-82.430772
3350,3350,Livingston Av @ 149th Av,28.086411,-82.430721
3357,3357,Magnolia Dr @ Alumni Dr,28.058278,-82.420029
3359,3359,Main St @ N Boulevard,27.957073,-82.468707
3361,3361,Main St @ Willow Av,27.957109,-82.472253
3365,3365,Main St @ Albany Av,27.957176,-82.480708
3366,3366,Main St @ Howard Av,27.957207,-82.48272
3367,3367,Main St @ Howard Av,27.95706,-82.483324
3368,3368,Main St @ Albany Av,27.957043,-82.480985
3372,3372,Main St @ Willow Av,27.956919,-82.473087
3374,3374,Main St @ N Boulevard,27.95692,-82.468784
3376,3376,Plant Av @ Beach Place,27.940304,-82.462761
3377,3377,Plant Av @ Platt St,27.941895,-82.462685
3378,3378,Plant Av @ Brorein St,27.943118,-82.462665
3380,3380,Plant Av @ Kennedy Blvd,27.945742,-82.462657
3388,3388,Puritan Rd @ Pine Hill Dr,28.020318,-82.39617
3393,3393,Puritan Rd @ Pine Hill Dr,28.02023,-82.39652
3398,3398,Republica De Cuba @ 14th Av,27.964333,-82.444322
3401,3401,Rome Av @ Wishart Blvd,27.988861,-82.47627
3404,3404,Rome Av @ Barr Dr,27.993571,-82.476151
3406,3406,Rome Av @ Hillsborough Av,27.995029,-82.476101
3407,3407,Rome Av @ Comanche Av,27.997555,-82.476061
3408,3408,Rome Av @ Powhatan Av,27.999222,-82.476072
3409,3409,Rome Av @ Burke St,28.001776,-82.476053
3411,3411,Rome Av @ Hanna Av,28.003188,-82.476044
3412,3412,Rome Av @ Lambright St,28.005688,-82.476004
3413,3413,Rome Av @ Hiawatha St,28.009011,-82.476026
3414,3414,Rome Av @ Sligh Av,28.010571,-82.476019
3418,3418,Rome Av @ North St,28.00618,-82.476148
3419,3419,Rome Av @ Hanna Av,28.003519,-82.476159
3420,3420,Rome Av @ Burke St,28.001531,-82.476235
3421,3421,Rome Av @ Clifton St,28.00051,-82.47632
3422,3422,Rome Av @ Powhatan Av,27.99908,-82.47619
3423,3423,Rome Av @ Comanche Av,27.997768,-82.476182
3424,3424,Rome Av @ Hillsborough Av,27.99625,-82.476205
3425,3425,Rome Av @ Alexander Rd,27.994008,-82.476248
3426,3426,Rome Av @ Bedingfield Dr,27.99232,-82.476295
3427,3427,Rome Av @ Wishart Blvd,27.98973,-82.476375
3429,3429,Rome Av @ Johnston Av,27.985097,-82.476495
3431,3431,Rome Av @ Ferris Av,27.982675,-82.47656
3432,3432,Rowlett Park Dr @ Sligh Av,28.011227,-82.430111
3435,3435,Rowlett Park Dr @ 22nd St,28.022674,-82.435328
3436,3436,Rowlett Park Dr @ Waters Av,28.024875,-82.436817
3437,3437,Rowlett Park Dr @ Waters Av,28.024592,-82.43678
3438,3438,Rowlett Park Dr @ Mulberry Dr,28.022728,-82.435581
3439,3439,Rowlett Park Dr @ Sligh Av,28.011371,-82.430315
3443,3443,Seward St @ Branch Av,28.027979,-82.458067
3444,3444,Seward St @ Dixon Av,28.02797,-82.457328
3445,3445,Skagway Av @ 20th St,28.031893,-82.436594
3446,3446,Skagway Av @ 22nd St,28.031702,-82.434811
3447,3447,South Boulevard @ Bay St,27.93798,-82.4686
3451,3451,South Boulevard @ Platt St,27.941613,-82.468485
3452,3452,South Boulevard @ Platt St,27.941974,-82.468599
3453,3453,South Boulevard @ Horatio St,27.939933,-82.468643
3455,3455,South Boulevard @ Swann Av,27.93757,-82.46868
3457,3457,Violet St @ Florida Av,27.990673,-82.460145
3461,3461,Ysabella Av @ Bay To Bay Blvd,27.919594,-82.491188
3462,3462,Ysabella Av @ Barcelona St,27.92078,-82.490521
3463,3463,Ysabella Av @ Rubideaux St,27.921741,-82.489914
3464,3464,Ysabella Av @ Palm Dr,27.923109,-82.489257
3466,3466,Ysabella Av @ Bay To Bay Blvd,27.919589,-82.491423
3467,3467,Ysabella Av @ Barcelona St,27.920155,-82.491077
3468,3468,Yukon St @ Ruth Place,28.028978,-82.42706
3470,3470,Yukon St @ 26th St,28.028886,-82.430443
3471,3471,Yukon St @ Florida Av,28.029138,-82.459172
3473,3473,Yukon St @ Suwanee Av,28.028966,-82.458888
3475,3475,Yukon St @ Nebraska Av,28.029193,-82.451937
3479,3479,Yukon St @ Ruth Place,28.028867,-82.427261
3512,3512,17th Av @ 27th St,27.967542,-82.429506
3513,3513,17th Av @ 25th St,27.967515,-82.43182
3514,3514,17th Av @ 24th St,27.967478,-82.4331
3515,3515,17th Av @ 22nd St,27.96753,-82.434561
3516,3516,17th Av @ 20th St,27.967527,-82.436765
3517,3517,17th Av @ 18th St,27.967612,-82.439158
3518,3518,17th Av @ 16th St,27.967614,-82.441612
3519,3519,19th Av @ 40th St,27.968551,-82.414682
3520,3520,19th Av @ 36th St,27.968502,-82.419164
3523,3523,29th St @ 25th Av,27.973208,-82.427978
3526,3526,29th St @ Lake Av,27.977704,-82.428023
3528,3528,29th St @ Lindell Av,27.979911,-82.428012
3529,3529,29th St @ M L King Jr Blvd,27.981223,-82.427946
3533,3533,29th St @ 38th Av,27.983814,-82.428118
3535,3535,29th St @ M L King Jr Blvd,27.981631,-82.428129
3536,3536,29th St @ Lindell Av,27.980055,-82.428139
3538,3538,29th St @ Lake Av,27.977574,-82.428149
3539,3539,29th St @ 28th Av,27.976449,-82.428084
3541,3541,29th St @ 25th Av,27.973471,-82.42815
3543,3543,29th St @ 21St Av,27.970606,-82.428108
3546,3546,43Rd St @ Hanna Av,28.003988,-82.409972
3547,3547,43Rd St @ Fern St,28.005346,-82.409991
3548,3548,43Rd St @ Diana St,28.00694,-82.41009
3551,3551,43Rd St @ 6524,28.009999,-82.410125
3555,3555,43Rd St @ Hanna Av,28.003553,-82.410387
3560,3560,Bay Haven Dr @ MacDill Av,27.867277,-82.494008
3561,3561,Bay Haven Dr @ Bayshore Blvd,27.867162,-82.489346
3578,3578,Brorein St @ Parker St,27.94347,-82.460659
3580,3580,Brorein St @ Hyde Park Av,27.943178,-82.46364
3589,3589,Route 1 @ Yukon Transfer Center,28.029211,-82.456558
3593,3593,Fowler Av @ 53Rd St,28.054568,-82.395391
3595,3595,Fowler Av @ 50th St,28.054577,-82.401516
3598,3598,Fowler Av @ 9th St,28.054693,-82.449589
3599,3599,Fowler Av @ Florida Av,28.054706,-82.459181
3605,3605,Fowler Av @ 56th St,28.054204,-82.392783
3607,3607,Gunn Hwy @ Linebaugh Av,28.039857,-82.508532
3610,3610,Gunn Hwy @ Linebaugh Av,28.040445,-82.509134
3613,3613,Hanna Av @ 42nd St,28.003416,-82.411984
3615,3615,Hanna Av @ 39th St,28.00342,-82.4161
3616,3616,Hanna Av @ 37th St,28.003492,-82.418188
3617,3617,Hanna Av @ 36th St,28.003409,-82.4219
3618,3618,Hanna Av @ 34th St,28.003408,-82.422234
3619,3619,Hanna Av @ 32nd St,28.003392,-82.424758
3620,3620,Hanna Av @ 30th St,28.003409,-82.426315
3623,3623,Hanna Av @ 32nd St,28.003284,-82.42458
3624,3624,Hanna Av @ 34th St,28.003293,-82.422432
3625,3625,Hanna Av @ 36th St,28.003293,-82.420427
3626,3626,Hanna Av @ 37th St,28.00332,-82.41839
3627,3627,Hanna Av @ 39th St,28.003319,-82.416344
3628,3628,Hanna Av @ 40th St,28.00331,-82.414824
3629,3629,Hanna Av @ 42nd St,28.003291,-82.412241
3632,3632,Hesperides St @ Henry St,28.000333,-82.51948
3633,3633,Hesperides St @ Comanche Av,27.998609,-82.51957
3634,3634,Kissimmee St @ Commerce St,27.863619,-82.528566
3655,3655,Memorial Hwy @ George Rd,27.981908,-82.550648
3658,3658,Memorial Hwy @ Waltham Av,27.981882,-82.559075
3659,3659,Memorial Hwy @ Kelly Rd,27.981903,-82.564803
3661,3661,Memorial Hwy @ Dana Shores Dr,27.981657,-82.556937
3662,3662,Memorial Hwy @ Independence Pkwy,27.98164,-82.555357
3664,3664,Memorial Hwy @ George Rd,27.98161,-82.549736
3700,3700,Tampa Bay Blvd @ Dale Mabry Hwy,27.974123,-82.503852
3703,3703,Tampa Bay Blvd @ Dale Mabry Hwy,27.973973,-82.503736
3730,3730,Armenia Av @ Virginia Av,27.979628,-82.484676
3731,3731,Armenia Av @ Wishart Place,27.982618,-82.484542
3733,3733,Armenia Av @ Erna Dr,27.986326,-82.484561
3734,3734,Armenia Av @ Osborne Av,27.988491,-82.484527
3735,3735,Armenia Av @ Violet St,27.99047,-82.484487
3736,3736,Armenia Av @ Hillsborough Av,27.995795,-82.484306
3739,3739,Armenia Av @ Comanche Av,27.997506,-82.484346
3740,3740,Armenia Av @ Powhatan Av,27.998883,-82.484343
3741,3741,Armenia Av @ Clifton St,28.000552,-82.484344
3742,3742,Armenia Av @ Burke St,28.00195,-82.48434
3743,3743,Armenia Av @ Hanna Av,28.003245,-82.484344
3744,3744,Armenia Av @ Diana St,28.006537,-82.484333
3745,3745,Armenia Av @ Minnehaha St,28.008906,-82.484337
3748,3748,Armenia Av @ Hamilton Av,28.014224,-82.485218
3749,3749,Armenia Av @ 7519,28.016787,-82.484905
3750,3750,Armenia Av @ Kenmore Av,28.018843,-82.484237
3751,3751,Armenia Av @ Marquette Av,28.019565,-82.484213
3752,3752,Armenia Av @ Sitka St,28.021533,-82.484209
3753,3753,Armenia Av @ Rose Hill Av,28.024421,-82.48417
3754,3754,Armenia Av @ Waters Av,28.026024,-82.48415
3758,3758,Armenia Av @ Skagway Av,28.032046,-82.484052
3759,3759,Armenia Av @ Rambla St,28.033682,-82.484098
3760,3760,Armenia Av @ Armenia Place,28.035161,-82.483668
3761,3761,Armenia Av @ Marianna St,28.03777,-82.482403
3768,3768,Armenia Av @ Waters Av,28.025218,-82.484342
3770,3770,Armenia Av @ Westhigh Av,28.021451,-82.484391
3771,3771,Armenia Av @ Marquette St,28.020129,-82.48441
3772,3772,Armenia Av @ Kenmore Av,28.018798,-82.48442
3773,3773,Armenia Av @ Armenia Ct,28.017013,-82.484986
3774,3774,Armenia Av @ Hamilton Av,28.014143,-82.485309
3775,3775,Armenia Av @ Sligh Av,28.010385,-82.484456
3777,3777,Armenia Av @ Hiawatha St,28.00883,-82.484434
3778,3778,Armenia Av @ Diana St,28.006808,-82.484442
3782,3782,Armenia Av @ Powhatan Av,27.999148,-82.484457
3783,3783,Armenia Av @ Comanche Av,27.997665,-82.484464
3784,3784,Armenia Av @ Hillsborough Av,27.996491,-82.484489
3785,3785,Armenia Av @ Crest Av,27.993966,-82.484508
3786,3786,Armenia Av @ Wilder Av,27.992524,-82.48454
3787,3787,Armenia Av @ Violet St,27.990334,-82.484594
3788,3788,Armenia Av @ Osborne Av,27.988914,-82.484619
3789,3789,Armenia Av @ Erna Dr,27.986539,-82.484664
3791,3791,Armenia Av @ Alva St,27.983237,-82.484712
3792,3792,Armenia Av @  M L King Jr Blvd,27.981553,-82.484755
3797,3797,Armenia Av @ Braddock St,27.972658,-82.484863
3800,3800,Armenia Av @ Cordelia St,27.969012,-82.484895
3802,3802,Armenia Av @ St Joseph St,27.966116,-82.484969
3804,3804,Armenia Av @ Beach St,27.963146,-82.485018
3806,3806,Armenia Av @ Walnut St,27.960213,-82.485006
3808,3808,Armenia Av @ Azeele St,27.941244,-82.48511
3810,3810,Armenia Av @ Deleon St,27.938802,-82.485106
3869,3869,Bloomingdale Av @ Kings Av,27.893499,-82.293232
3875,3875,Davis Blvd @ Biscayne Av,27.925982,-82.452943
3876,3876,Davis Blvd @ Barbados Av,27.927878,-82.454032
3877,3877,Davis Blvd @ Bosphorus Av,27.92896,-82.45518
3878,3878,Davis Blvd @ Bering St,27.931626,-82.45661
3882,3882,Davis Blvd @ Adriatic Av,27.932603,-82.457003
3903,3903,Marion St @ Whiting St,27.946308,-82.455488
3907,3907,7th Av @ 15th St,27.960158,-82.443097
3909,3909,7th Av @ 22nd St,27.960139,-82.434581
3917,3917,Marion St @ Kennedy Blvd,27.947748,-82.456116
3942,3942,Brandon Blvd @ Lakewood Dr,27.93788,-82.311213
3943,3943,Memorial Hwy @ Bray Rd,27.981938,-82.55636
3956,3956,Linebaugh Av @ Ola Av,28.040001,-82.463748
3957,3957,Linebaugh Av @ 816,28.040002,-82.466044
3958,3958,Linebaugh Av @ N Boulevard,28.040025,-82.467695
3959,3959,Linebaugh Av @ Newport Av,28.040056,-82.469604
3960,3960,Linebaugh Av @ Forest Hills Dr,28.04003,-82.47238
3961,3961,Linebaugh Av @ Oregon Av,28.040073,-82.47456
3962,3962,Linebaugh Av @ Valle Dr,28.040081,-82.477681
3966,3966,Linebaugh Av @ Oregon Av,28.03991,-82.474823
3967,3967,Linebaugh Av @ Forest Hills Dr,28.03991,-82.472664
3968,3968,Linebaugh Av @ Newport Av,28.039893,-82.469867
3970,3970,Linebaugh Av @  N Boulevard,28.039885,-82.467952
3971,3971,Linebaugh Av @ 816,28.039867,-82.466066
3972,3972,Linebaugh Av @ Dartmouth Av,28.039868,-82.463259
3973,3973,Linebaugh Av @ Florida Av,28.039868,-82.460077
3980,3980,Anderson Rd @ Crenshaw St,28.015315,-82.533467
3983,3983,Anderson Rd @ Tampa West Blvd,28.019679,-82.5341
3985,3985,Anderson Rd @ Waters Av,28.024549,-82.536821
3987,3987,56th St @ Busch Blvd,28.031946,-82.393646
3994,3994,First Baptist Church Pnr Lutz,28.135334,-82.464311
3995,3995,Florida Av @ Bearss Av,28.08649,-82.459521
3996,3996,Highland Av @ Osborne Av,27.988948,-82.462097
3998,3998,Highland Av @ Emma St,27.985904,-82.46213
4003,4003,Tampa St @ Indiana Av,27.978153,-82.461145
4005,4005,Tampa St @ Emily St,27.975027,-82.460962
4007,4007,Tampa St @ Adalee St,27.971969,-82.460919
4013,4013,Tampa St @ Ross Av,27.963352,-82.460999
4015,4015,Tampa St @ Oak Av,27.961133,-82.460989
4016,4016,Tampa St @ Henderson Av,27.959114,-82.461019
4017,4017,Nebraska Av @ Cayuga St,27.986895,-82.451095
4020,4020,Waters Av @ Hanley Rd,28.025699,-82.562551
4021,4021,Henderson Av @ Florida Av,27.959575,-82.459303
4027,4027,Nebraska Av @ Fletcher Av,28.06851,-82.45098
4044,4044,Broadway Av @ 50th St Ws,27.961674,-82.402859
4047,4047,Busch Blvd @ 30th St,28.03267,-82.427015
4048,4048,Columbus Dr @ Woodrow Av,27.966802,-82.466904
4052,4052,Columbus Dr @ 22nd St,27.966706,-82.434875
4055,4055,Dale Mabry Hwy @ Stall Rd,28.061963,-82.503593
4061,4061,Habana Av @ Sligh Av,28.010365,-82.488468
4062,4062,Hanna Av @ 43Rd St,28.003291,-82.410235
4063,4063,Harney Rd @ Hanna Av,28.003306,-82.380623
4065,4065,Himes Av @ Hillsborough Av,27.996765,-82.500829
4069,4069,Linebaugh Av @ Albany Av,28.039899,-82.480134
4071,4071,Lois Av @ Alva St,27.983888,-82.51349
4074,4074,Lois Av @ M L King Jr Blvd,27.981515,-82.513488
4078,4078,Manhattan Av @ Gandy Blvd,27.8933,-82.51845
4085,4085,Nuccio Pkwy @ Palm Av,27.962657,-82.446854
4090,4090,Oakfield Dr @ Pauls Dr,27.933948,-82.302207
4091,4091,Oakfield Dr @ Morrison Rd,27.934183,-82.309075
4093,4093,Orient Rd @ Broadway Av,27.965617,-82.372913
4095,4095,Rome Av @ Knollwood St,28.007418,-82.476025
4098,4098,Swann Av @ Dakota Av,27.9374,-82.475642
4102,4102,Linebaugh Av @ Armenia Av,28.040056,-82.480554
4103,4103,131St Av @ 20th St,28.065451,-82.436755
4107,4107,22nd St @ Aimee Ct,28.077747,-82.434514
4112,4112,22nd St @ Osborne Av,27.988596,-82.43463
4116,4116,22nd St @ Flager St,27.941431,-82.434626
4117,4117,22nd St @ Chapin St,27.942867,-82.434633
4119,4119,22nd St @ Stuart St,27.947124,-82.434612
4122,4122,22nd St @ 11th Av,27.963001,-82.434652
4125,4125,22nd St @ 142nd Av,28.075945,-82.434616
4126,4126,22nd St @ Fowler Av,28.053679,-82.43466
4129,4129,22nd St @ Linebaugh Av,28.04006,-82.434749
4130,4130,22nd St @ 97th Av,28.037439,-82.434648
4132,4132,22nd St @ Busch Blvd,28.033037,-82.434686
4133,4133,22nd St @ Skagway Av,28.032025,-82.434694
4135,4135,22nd St @ North Bay St,27.983542,-82.434823
4141,4141,Bruce B Downs Blvd @ Mimosa St,28.06723,-82.42593
4142,4142,50th St @ Adamo Dr,27.952785,-82.401587
4146,4146,Bearss Av @ Pinecrest Rd,28.087859,-82.457645
4172,4172,Jefferson St @ Crosstown Expwy,27.9459,-82.452177
4173,4173,S Meridian St @ Cumberland Av,27.945502,-82.448249
4184,4184,Tyler St @ Ashley Dr,27.951505,-82.462171
4185,4185,Fowler Av @ 17th St,28.054667,-82.440466
4196,4196,Gunn Hwy @ Anderson Rd,28.061443,-82.542855
4213,4213,Holly Dr @ Maple Dr,28.065697,-82.407439
4217,4217,Holly Dr @ Maple Dr,28.065799,-82.407294
4219,4219,Holly Dr @ Palm Dr,28.065809,-82.412019
4226,4226,Hillsborough Av @ Highland Av,27.996002,-82.461676
4228,4228,Hillsborough Av @ Ola Av,27.996322,-82.464118
4229,4229,Hillsborough Av @ Lee Place,27.996176,-82.469766
4231,4231,Hillsborough Av @ Rome Av,27.99607,-82.47597
4233,4233,Marion St @ Kennedy Blvd,27.948681,-82.456328
4234,4234,Marion St @ Zack St,27.950863,-82.457311
4235,4235,Marion St @ Cass St,27.952312,-82.457939
4241,4241,Marion St @ Cass St,27.951651,-82.457858
4242,4242,Marion St @ Washington St,27.947177,-82.45566
4244,4244,Marion St @ Estelle St,27.958208,-82.45869
4247,4247,Florida Av @ Waters Av,28.024459,-82.459563
4254,4254,Britton Plaza  Transfer Center,27.906751,-82.504183
4255,4255,Macdill Air Force Base,27.863302,-82.499519
4264,4264,21St Av @ 43Rd St,27.970334,-82.410246
4271,4271,N Boulevard @ Sligh Av,28.011124,-82.467729
4272,4272,N Boulevard @ Country Club Dr,28.054482,-82.46744
4273,4273,University Mall,28.057475,-82.436651
4284,4284,Westfield Brandon Mall,27.931992,-82.324716
4285,4285,Palm River Rd @ 50th St,27.942878,-82.401185
4289,4289,Republica De Cuba @ Columbus Dr,27.966534,-82.444312
4292,4292,Frontage Rd @ Laurel St,27.956001,-82.536651
4294,4294,Manhattan Av @ Sligh Av,28.010331,-82.517356
4296,4296,22nd St @ Columbus Dr,27.966642,-82.434652
4298,4298,22nd St @ Sligh Av,28.010204,-82.434755
4301,4301,Yukon Transfer Center,28.029655,-82.456416
4304,4304,M L King Jr Blvd @ N Boulevard,27.981474,-82.46783
4305,4305,Broadway Av @ 50th St,27.962035,-82.400721
4306,4306,Orient Road County Jail,27.960309,-82.372877
4308,4308,Yukon Transfer Center,28.029609,-82.456548
4316,4316,Country Club Dr @ N Boulevard,28.05469,-82.467421
4317,4317,N Boulevard@ Sligh Av,28.010961,-82.467901
4319,4319,Florida Av @ Bearss Av,28.086998,-82.459693
4322,4322,Rogers Field Park-N-Ride,27.942198,-82.281831
4323,4323,Brandon K-Mart @ Hwy 60,27.938032,-82.308826
4326,4326,113th Av @ Temple Terrace City Hall,28.050772,-82.394396
4329,4329,Fletcher Ave @ Dale Mabry Hwy,28.065758,-82.501659
4330,4330,Fletcher Av @ Florida Av,28.069382,-82.460195
4333,4333,J C Handley Park Pnr,27.899361,-82.295315
4340,4340,Tampa International Main Terminal,27.980492,-82.533571
4341,4341,Westshore Plaza,27.948801,-82.525507
4345,4345,M L King Jr Blvd @ 40th St,27.981518,-82.41376
4346,4346,M L King Jr Blvd @ 40th St,27.981375,-82.413443
4347,4347,M L King Jr Blvd @ 22nd St,27.98159,-82.435426
4348,4348,M L King Jr Blvd @ 22nd St,27.98136,-82.435006
4349,4349,M L King Jr Blvd @ Florida Av,27.981584,-82.460176
4350,4350,M L King Jr Blvd @ Florida Av,27.981367,-82.459637
4352,4352,M L King Jr Blvd @ Armenia Av,27.981376,-82.484433
4356,4356,Tampa Bay Blvd @ Hills Comm College,27.973991,-82.510048
4357,4357,Tampa Bay Blvd @ Hills Comm College,27.97411,-82.510515
4360,4360,Hillsborough Av @ Hanley Rd,27.996452,-82.563084
4361,4361,Hillsborough Av @ Westshore Blvd,27.996077,-82.523015
4363,4363,Brandon Regional Hospital,27.934071,-82.286533
4364,4364,Wal-Mart @ Mlk And Cr 579,27.983155,-82.302062
4365,4365,M L King Jr Blvd @ Orient Rd,27.981627,-82.372715
4368,4368,Sligh Av @ Rowlett Park Dr,28.010557,-82.429736
4370,4370,Citrus Park Park-N-Ride,28.076127,-82.570107
4371,4371,Carrollwood Park-N-Ride,28.081731,-82.54651
4384,4384,Kings Point Club House,27.711043,-82.359693
4387,4387,Courtney Cambell @ Rocky Point Dr,27.967335,-82.56696
4389,4389,Courtney Cambell  @ Rocky Point Rd,27.96766,-82.56877
4402,4402,Route 39 @ Yukon Transfer Center,28.029392,-82.456416
4403,4403,Route 39 @ Yukon Transfer Center,28.029374,-82.456558
4404,4404,Busch Blvd @ Armenia Av,28.033531,-82.48388
4406,4406,Gunn Hwy @ Anderson Rd,28.061895,-82.543221
4413,4413,Kennedy Blvd @ Marion St,27.948182,-82.456561
4414,4414,Tampa General Hospital,27.93696,-82.457622
4416,4416,Jackson St @ Marion St,27.947576,-82.455417
4417,4417,7th Av @ 21St St,27.960139,-82.435614
4430,4430,Special Ops Command,27.852477,-82.488568
4436,4436,Harbour Place Dr @ Beneficial Dr,27.939433,-82.451063
4438,4438,Route 1 @ Yukon Transfer Center,28.029256,-82.456416
4441,4441,Highland Av @ M L King Jr Blvd,27.981711,-82.462108
4444,4444,Nebraska Av @ Kay St,27.957132,-82.451116
4445,4445,22nd St @ 28th Av,27.975696,-82.434743
4446,4446,22nd St @ 32nd Av,27.978913,-82.434741
4451,4451,Florida Av @ Fairbanks St,28.026566,-82.459324
4452,4452,Florida Av @ Knollwood St,28.008255,-82.45937
4453,4453,Florida Av @ Hollywood St,28.019485,-82.459393
4456,4456,Florida Av @ Hamiller Av,28.034155,-82.459295
4457,4457,Florida Av @Moore Clinical Research,28.041417,-82.459276
4458,4458,Florida Av @ Prince St,28.067214,-82.459252
4460,4460,Florida Av @ Wildwood St,28.074471,-82.459342
4466,4466,Florida Av @ Floral Dr,28.080476,-82.459609
4467,4467,Florida Av @ 145th Av,28.078546,-82.459575
4468,4468,Florida Av @ 143Rd Av,28.076767,-82.459548
4469,4469,Florida Av @ Wildwood St,28.074359,-82.459503
4470,4470,Florida Av @ 127th Av,28.062044,-82.459454
4471,4471,Florida Av @ 124th Av,28.060411,-82.459441
4472,4472,Florida Av @ Elder Ford,28.038872,-82.459631
4478,4478,Tampa St @ Amelia Av,27.966242,-82.46097
4479,4479,Marion St @ Henderson Av,27.959069,-82.458872
4480,4480,Nebraska Av @ Palm Av,27.963047,-82.451199
4481,4481,Nebraska Av @ Mohawk Av,27.997086,-82.451106
4482,4482,Nebraska Av @ Juneau St,28.0236,-82.451202
4485,4485,Nebraska Av @ 126th Av,28.061212,-82.451019
4486,4486,Fletcher Av @ 12th St,28.069175,-82.44749
4487,4487,Fletcher Av @ Cecelia St,28.069165,-82.445602
4488,4488,Fletcher Av @ Winward Dr,28.069154,-82.440341
4489,4489,22nd St @ 132nd Av,28.066981,-82.434667
4490,4490,22nd St @ 131St Av,28.066202,-82.434667
4491,4491,131St Av @ 23Rd St,28.065432,-82.432457
4493,4493,22nd St @ 131St Av,28.065918,-82.434539
4496,4496,Nebraska Av @ Linebaugh Av,28.040223,-82.451371
4499,4499,Nebraska Av @ Wilder St,27.992715,-82.451187
4504,4504,Nebraska Av @ Whitehead Ct,27.954684,-82.451305
4507,4507,Swann Av @ Rome Av,27.937426,-82.477017
4508,4508,Howard Av @ Marjory Av,27.93096,-82.48319
4509,4509,Howard Av @ Hills Av,27.928142,-82.483313
4512,4512,Palm Dr @ Carolina Av,27.92411,-82.48688
4513,4513,Palm Dr @ Ysabella Av,27.923245,-82.489233
4514,4514,Ysabella Av @ Rubideaux St,27.921877,-82.490007
4516,4516,Dale Mabry Hwy @ Ballast Point Blvd,27.889639,-82.506489
4521,4521,Dale Mabry Hwy @ Mango Av,27.875288,-82.506243
4523,4523,Palm Dr @ Maryland Av,27.923943,-82.48694
4525,4525,Palm Dr @ Howard Av,27.9264,-82.483257
4526,4526,Howard Av @ Jetton Av,27.932913,-82.482947
4527,4527,Swann Av @ Melville Av,27.937243,-82.479619
4530,4530,Henderson Av @  Nebraska Av,27.959623,-82.450488
4531,4531,22nd St @ 13th Av,27.964197,-82.434652
4532,4532,Columbus Dr @ 33Rd St,27.966641,-82.423189
4533,4533,34th St @ Columbus Dr,27.967103,-82.422298
4534,4534,34th St @ Palifox St,27.986808,-82.42241
4535,4535,40th St @ Trailer Park,27.991609,-82.413971
4537,4537,40th St @ Jean St,28.004052,-82.414105
4539,4539,40th St @ Hutton Place,28.014023,-82.414487
4540,4540,40th St @ Humphrey  St,28.030532,-82.416245
4541,4541,Malcom McKinley Dr @ Busch Blvd,28.033303,-82.416214
4543,4543,Malcom McKinley Dr  @ D.O.T. Bldg,28.050524,-82.416144
4547,4547,Magnolia @ Medical Dr Traffic Light,28.061258,-82.419551
4548,4548,Magnolia Dr @ Moffit Hospital,28.064245,-82.420143
4549,4549,Magnolia Dr @ Moffit Hospital,28.063897,-82.42027
4550,4550,Magnolia @ Medical Dr @ Traffic Lig,28.059392,-82.419992
4551,4551,Alumni Dr @ Laurel Dr,28.058051,-82.417802
4552,4552,Mckinley Dr @ Fowler Av,28.053455,-82.416369
4553,4553,Mckinley Dr @ D.O.T. Bldg,28.050861,-82.416281
4555,4555,Mckinley Dr @ Linebaugh Av,28.03917,-82.416439
4559,4559,40th St @ Flora St,28.013634,-82.414953
4560,4560,40th St @ Jean St,28.003907,-82.414287
4561,4561,40th St @ Paris St,28.002667,-82.414298
4563,4563,40th St@ Comanche Av,27.997604,-82.414238
4565,4565,Osborne Av @ Troy St,27.988813,-82.420046
4566,4566,Osborne Av @ Webster St,27.98882,-82.421424
4567,4567,34th St @ 32nd Av,27.979209,-82.422495
4569,4569,21St Av @ 23Rd St,27.970365,-82.433254
4571,4571,21St Av @ 35th St,27.970345,-82.420454
4572,4572,21St Av @ 38th St,27.970308,-82.417345
4579,4579,50th St @  M L King Jr Blvd,27.981969,-82.401218
4580,4580,56th St @ Commerce Park Blvd,27.986459,-82.394937
4581,4581,56th St @ Cone Rd,27.992942,-82.393282
4582,4582,Hillsborough Av @ 56th St,27.996004,-82.392373
4584,4584,56th St @ Hillsborough Av,27.997072,-82.39331
4585,4585,56th St @ Henry Av,28.00016,-82.393319
4586,4586,56th St @ 5805 Hanna Av,28.00151,-82.393308
4587,4587,56th St @ Diana St,28.007097,-82.393325
4589,4589,Sligh Av @ 51St St,28.010767,-82.39926
4590,4590,Purtian Rd @ Whittier St,28.020222,-82.40036
4591,4591,56th St @ Temple Terrace Plaza,28.032127,-82.393322
4592,4592,56th St @ Temple Terrace Shops,28.033739,-82.393311
4597,4597,50th St @ Terrace Palms Apts 11801,28.056281,-82.401743
4598,4598,50th St @ Sun Ridge Condos,28.05849,-82.401762
4600,4600,50th St @ Sycamore Dr,28.063453,-82.401853
4601,4601,50th St @ Excellence Blvd,28.066095,-82.401875
4603,4603,Holly Dr @ Delta Apts,28.06577,-82.409958
4604,4604,North Palm Dr @  Usf Credit Union,28.066453,-82.413144
4607,4607,Fletcher Av @ Fmhi @ 31St St,28.068972,-82.423058
4610,4610,Fletcher Av @ John Knox Village,28.068971,-82.416843
4611,4611,Fletcher Av @ 42nd St,28.068952,-82.414116
4612,4612,N Palm @ Usf Credit Union,28.06715,-82.413326
4613,4613,Holly Dr @ Cresent Parking Garage,28.06567,-82.411312
4614,4614,Holly Dr @ Alpha Apts,28.065679,-82.409619
4616,4616,Holly Dr @ 50th St,28.066277,-82.402083
4617,4617,50th St @ 12850,28.06347,-82.401973
4619,4619,50th St @ Elm Dr,28.058807,-82.401878
4621,4621,50th St @ Terrace Palms Apts,28.05603,-82.40185
4622,4622,Fowler Av @ 51St St,28.054243,-82.400618
4625,4625,56th St @ Temple Terrace City Hall,28.050537,-82.393849
4634,4634,Puritan Rd @ Whittier St,28.020385,-82.40033
4636,4636,56th St @ Aaron  Rentals,28.009442,-82.393646
4637,4637,56th St @ 5806,28.0018,-82.393626
4638,4638,56th St @ Shadowlawn Av,27.99412,-82.393676
4640,4640,56th St @ 4316,27.985592,-82.39689
4641,4641,56th St @  M L King Jr Blvd,27.981715,-82.401659
4644,4644,21St Av @ 32nd St,27.970466,-82.42408
4645,4645,21St Av @ 13th St,27.970594,-82.445264
4646,4646,21St Av @ 11th St,27.9706,-82.447859
4648,4648,Nebraska Av @  Columbus Dr,27.967113,-82.451299
4651,4651,Palm Av @ Taliaferro Av,27.962339,-82.452625
4653,4653,Fletcher Av @ 42nd St,28.069251,-82.413741
4654,4654,Fletcher Av @ John Knott Village,28.069211,-82.417259
4656,4656,Metro Rapid Station 43 Fletcher Av,28.069252,-82.420118
4657,4657,Fletcher Av @ 31St St (Uch),28.069269,-82.423516
4659,4659,Howard Av @ Dewey St,27.97101,-82.48276
4660,4660,Howard Av @ Braddock St,27.972507,-82.483729
4661,4661,Armenia Av @ 4021,27.975338,-82.484738
4662,4662,Armenia Av@ St Isabel St,27.978255,-82.484691
4663,4663,M L King Blvd @ St Joseph Hospital,27.981447,-82.490234
4666,4666,Rome Av @ Johnston Av,27.984784,-82.476477
4667,4667,Rome Av @ School Light,27.986715,-82.476361
4668,4668,Rome Av @ Bedingfeild Dr,27.992058,-82.476201
4669,4669,Rome Av @ Clifton St,28.000671,-82.476053
4670,4670,Sligh Av @ Willow Av,28.010652,-82.472592
4671,4671,N Boulevard @ Picnic Area North,28.014852,-82.467789
4672,4672,N Boulevard @ Fairyland,28.016322,-82.467731
4673,4673,N Boulevard @ Chamberlain High,28.034506,-82.467686
4674,4674,N Boulevard @ Perdiz St,28.038381,-82.467647
4675,4675,N Boulevard @ Newport Circle,28.042004,-82.467628
4676,4676,N Boulevard @ 113th Av,28.050875,-82.46761
4677,4677,Country Club Dr @ Ola Av,28.054564,-82.463567
4678,4678,Fowler Av @ Florida Av,28.054474,-82.45857
4679,4679,Fowler Av @ 325,28.054502,-82.45707
4680,4680,Fowler Av @ Nebraska Av,28.05445,-82.451995
4681,4681,Fowler Av @ 14th St,28.054313,-82.444906
4682,4682,Fowler Av @ 15th St,28.054343,-82.442292
4683,4683,22nd St @ 12401 University  Village,28.061566,-82.434495
4684,4684,22nd St @ Worthing Square Apts,28.063594,-82.434485
4688,4688,22nd St @ 140th Av,28.073645,-82.434444
4689,4689,22nd St @ 142nd Av,28.075519,-82.434433
4701,4701,Bearss Av @ 17th St,28.080427,-82.441257
4702,4702,Bearss Av @ 18th St,28.080264,-82.439584
4703,4703,Bearss Av @ 19th St,28.080264,-82.438256
4704,4704,Bearss Av @ Gregory Dr,28.080264,-82.436938
4706,4706,22nd St @ Worthing Square Apts,28.063647,-82.434598
4707,4707,22nd St @ 12401 University Village,28.061295,-82.4346
4708,4708,Fowler Av @ 15th St,28.054672,-82.442068
4709,4709,Fowler Av @ 14th St,28.054683,-82.444776
4710,4710,Fowler Av @ Nebraska Av,28.054738,-82.451934
4711,4711,Fowler Av @ Vault Lodge,28.05472,-82.453
4712,4712,Country Club Dr @ Ola Av,28.054678,-82.463342
4713,4713,N Boulevard @ 116th Av,28.053676,-82.467683
4714,4714,N Boulevard @ 113th Av,28.050923,-82.467722
4715,4715,N Boulevard @ 109th Av,28.046024,-82.467781
4717,4717,N Boulevard @ Patbur Av,28.036634,-82.467839
4718,4718,N Bouevard @ Ola Av,28.020524,-82.467864
4719,4719,N Boulevard @ Hollywood St,28.019517,-82.467813
4720,4720,N Boulevard @ Saftey Village,28.016429,-82.467854
4721,4721,N Boulevard @ Picnic Area,28.015263,-82.467933
4722,4722,Rome Av @ Hiawatha St,28.009485,-82.476126
4723,4723,Rome Av @ Knollwood St,28.007748,-82.476143
4724,4724,Rome Av @ School Light,27.987138,-82.476434
4725,4725,Ferris Av @ 1709,27.982357,-82.477539
4726,4726,Ferris Av @ Albany Av,27.982178,-82.480502
4727,4727,Armenia Av @ St Isabel St,27.978461,-82.484814
4729,4729,Armenia Av @ Fiesta Plaza,27.975175,-82.484838
4733,4733,7th Av @ 27th St,27.96013,-82.428941
4735,4735,7th Av @ 4100,27.9601,-82.412386
4736,4736,7th Av @ 47th St,27.960705,-82.406088
4740,4740,50th St @ Uceta Rd,27.958693,-82.401929
4747,4747,Palm River Rd @ 68th St,27.941021,-82.379259
4748,4748,78th St @ Parish Place,27.936071,-82.368741
4749,4749,78th St @ Carnegie Cr North,27.933213,-82.368749
4751,4751,78th St @ 4216,27.909275,-82.368757
4752,4752,83Rd St @ 4917,27.901944,-82.364787
4753,4753,83Rd St @ 5201,27.90084,-82.36472
4755,4755,Causeway Blvd @ Clifford Sample Dr,27.922577,-82.362441
4757,4757,Causeway Blvd @ 90th St,27.922563,-82.356388
4759,4759,Causeway Blvd @ Hwy 301 Ws,27.922578,-82.352239
4760,4760,Causeway Blvd @ Hwy 301 Es,27.922493,-82.348271
4761,4761,Causeway Blvd @ Marsh Harbor Way,27.922841,-82.341551
4763,4763,Causeway Blvd @ Marsh Harbor Way,27.923163,-82.341628
4765,4765,Causeway Blvd @ Us Hwy 301 Ws,27.922731,-82.350559
4767,4767,Causeway Blvd @ 90th St,27.922727,-82.356641
4769,4769,Causeway Blvd @ Clifford Sample Dr,27.922731,-82.362238
4771,4771,83Rd @ 4986,27.900884,-82.364605
4772,4772,83Rd @ 4916,27.902242,-82.364604
4773,4773,Fir Dr @ 82nd St,27.903313,-82.3661
4774,4774,79th St @ 78th St,27.902481,-82.368621
4775,4775,78th St @ 49th Av,27.903423,-82.36857
4776,4776,78th St @ 4217,27.909175,-82.368585
4778,4778,78th St @ 34th Av,27.91778,-82.36867
4781,4781,78th St @ Destin Dr,27.938938,-82.368578
4782,4782,Palm River Rd @ 76th St,27.941215,-82.371818
4784,4784,Palm River Dr @ Coconut Dr,27.941148,-82.375495
4789,4789,Palm River Rd @ 56th St,27.943073,-82.395087
4794,4794,7th Av @ 41St St   J W Conner Bldg,27.960255,-82.412427
4795,4795,7th Av @ 36th St,27.960256,-82.419817
4797,4797,Channelside Dr @ Adamo Dr,27.956399,-82.445638
4798,4798,Channelside Dr @ Harbor St,27.9536,-82.445577
4803,4803,Borein St @ Jefferson St,27.94496,-82.4516
4804,4804,Nuccio Pkwy @ Scott Dr,27.956715,-82.447612
4811,4811,Nuccio Pkwy @ 4th Av,27.958201,-82.44663
4812,4812,Nuccio Pkwy @ 1330,27.955511,-82.448787
4813,4813,15th St @ M L King Jr Blvd,27.980845,-82.442868
4816,4816,20th St @ Skagway Av,28.031539,-82.436645
4818,4818,15th St @ 113th Av,28.050628,-82.442767
4819,4819,15th St @ Shaw Elementary School,28.051923,-82.442777
4821,4821,131St Av @ 22nd St,28.065441,-82.434931
4823,4823,143Rd Av @ 19th St,28.076597,-82.438083
4828,4828,Nebraska Av @  140th Av,28.074495,-82.451112
4830,4830,Nebraska Av @ 145th Av,28.078597,-82.451082
4831,4831,Nebraska Av @ Skipper Rd,28.080196,-82.451187
4832,4832,Nebraska Av @ April Lane,28.08192,-82.451251
4833,4833,Nebraska Av @ Bearss Av,28.086221,-82.451256
4837,4837,Bearss Av @ Nebraska Av,28.087816,-82.452494
4839,4839,Nebraska Av @ April Lane,28.0823,-82.451509
4840,4840,Nebraska Av @ Skipper Rd,28.080716,-82.451468
4841,4841,Nebraska Av @ 145th Av,28.077936,-82.451397
4844,4844,140th Av @ North Towne Ct,28.074595,-82.449044
4845,4845,140th Av @ 12th St,28.074595,-82.447178
4848,4848,131St Av @ 17th St,28.065623,-82.440669
4849,4849,15th St @ 130th Av,28.064702,-82.442885
4850,4850,15th St @ College Park Lane,28.055513,-82.442903
4851,4851,15th St @ Shaw Elementary School,28.05229,-82.442905
4854,4854,Water Av @ Klondike St,28.025329,-82.445756
4857,4857,15th St @ Escort Av,28.008954,-82.443048
4858,4858,14th St @ 29th Av,27.977021,-82.444322
4859,4859,14th St @ 27th Av,27.975574,-82.444345
4860,4860,14th St @ 26th Av,27.974277,-82.444333
4861,4861,14th St @ 24th Av,27.972864,-82.444313
4862,4862,14th St @ 23Rd Av,27.972022,-82.444302
4863,4863,14th St @ 21St Av,27.970756,-82.444258
4864,4864,Republica De Cuba @ 20th Av,27.969893,-82.444242
4865,4865,Republica De Cuba @ 19th Av,27.968851,-82.444243
4867,4867,Nuccio Pkwy @ 4th Av,27.958418,-82.447137
4868,4868,Nuccio Pkwy @ 1330,27.955722,-82.448933
4869,4869,Cass St @ N Boulevard,27.950236,-82.468043
4870,4870,Cypress St @ Edison Av,27.95202,-82.469805
4874,4874,Laurel St @ 5215,27.955949,-82.534292
4875,4875,Laurel St @ Laurel Oaks,27.95588,-82.529392
4876,4876,Laurel St @ 4913,27.955864,-82.526992
4877,4877,Laurel St @ Westshore Blvd,27.955848,-82.524947
4878,4878,Cypress St @ Holiday Inn,27.95212,-82.520174
4879,4879,Cass St @ N Boulevard,27.950073,-82.467992
4880,4880,Westshore Blvd @ North B St,27.946329,-82.524056
4882,4882,22nd St @ Giddens Av,27.995171,-82.43465
4883,4883,Rowlett Park Dr @ Gas Station,28.015855,-82.431559
4884,4884,Rowlett Park Dr @ theochem Lab,28.019758,-82.433332
4886,4886,22nd St @ 115th Av,28.052049,-82.434516
4888,4888,Rowlett Park Dr @ theochem Lab,28.016063,-82.431822
4889,4889,Rowlett Park Dr @ Gas Station,28.015574,-82.43167
4890,4890,Sligh Av @ 24th Av,28.010747,-82.432512
4892,4892,22nd St @ Hanna Av,28.003466,-82.434812
4894,4894,22nd St  @ Cayuga St,27.986632,-82.434773
4895,4895,22nd St @ 28th Av,27.975717,-82.434806
4896,4896,22nd St @ 26th Av @ Lee Davis Bldg,27.974784,-82.434806
4897,4897,22nd St @ 23Rd Av,27.972085,-82.434768
4898,4898,Nebraska Av @  Estelle St,27.958516,-82.451291
4906,4906,Busch Blvd @ Florida Av,28.033027,-82.460922
4908,4908,Waters Av @ Fountain Bridge Apts,28.025388,-82.481912
4909,4909,Waters Av @ Lago Vista Dr,28.025517,-82.49498
4910,4910,Waters Av @ Dale Mabry Hwy W/S,28.025585,-82.50594
4911,4911,Waters Av @ Quail Oaks Apts,28.025592,-82.521701
4912,4912,Waters Av @ 4899 Lanier Co,28.025616,-82.526153
4913,4913,Waters Av @  Savarese Pl Ace,28.025654,-82.529809
4914,4914,Waters Av @ Comfort Suites,28.025746,-82.534664
4915,4915,Waters Av @ Sitka St,28.025791,-82.54738
4916,4916,Waters Av @ Rustic Dr,28.025966,-82.559208
4917,4917,Waters Av @ Hulsey Rd,28.025932,-82.557019
4919,4919,15th St @ 124th Av,28.060244,-82.442747
4920,4920,Waters Av @ Hulsey Rd,28.025622,-82.55864
4921,4921,Waters Av @ Jr Manor Dr,28.025597,-82.556704
4923,4923,Waters Av @ Fl Orida Mining Blvd,28.025403,-82.533681
4924,4924,Waters Av @ 4030,28.025267,-82.511135
4925,4925,Busch Blvd @ N Boulevard,28.033039,-82.467625
4932,4932,Euclid Av @ Waverly Place,27.90874,-82.49463
4933,4933,Euclid Av @ Waverly Cr,27.908567,-82.49696
4934,4934,Macdill Av @ Bay Court Av,27.907173,-82.493801
4936,4936,Macdil Av @ Chapin Av,27.899727,-82.493908
4937,4937,Macdill Av @ Leila Av,27.88486,-82.49396
4938,4938,Macdill Av @ 6207,27.878571,-82.494038
4939,4939,Macdill Av @ 6321,27.876608,-82.49406
4940,4940,Macdill Av @ Averill Av,27.874987,-82.494125
4941,4941,Macdill Av @ Bay Haven Dr,27.867323,-82.49417
4942,4942,Bay Haven Dr @ 2826,27.867143,-82.491955
4943,4943,Bayshore Blvd @ MacDill AFB Gate,27.864578,-82.488755
4945,4945,Bayshore Blvd @ MacDill AFB Gate,27.865133,-82.488677
4946,4946,Bay Haven Dr @ Bayshore Blvd,27.867297,-82.48981
4947,4947,Bay Haven Dr @ 2821,27.867258,-82.491993
4948,4948,Macdill Av @ Hartnett Av,27.872215,-82.493951
4949,4949,Macdill Av @ Chapin Av,27.899591,-82.493716
4950,4950,Macdill Av @ Tambay Av,27.904809,-82.493668
4951,4951,Euclid Av @ Waverly Place,27.908577,-82.493985
4959,4959,Kennedy Blvd @ Ashley Dr,27.946823,-82.459973
4960,4960,29th St @ 28th Av,27.976521,-82.428021
4961,4961,29th St @ 38th Av,27.984185,-82.427936
4962,4962,30th St @ Cayuga St,27.986612,-82.426345
4963,4963,22nd St @ Water Av,28.02512,-82.434586
4964,4964,22nd St @ Rowlett Park Rd,28.02745,-82.4324
4965,4965,Yukon St @ 26th St,28.028705,-82.430433
4966,4966,30th St @ 97th Av,28.038276,-82.426115
4968,4968,30th St @ Pointsettia Av,28.041295,-82.426117
4969,4969,30th St @ University Center,28.04482,-82.42609
4970,4970,3Oth St @ Times Customer Service,28.045185,-82.426111
4971,4971,30th St @ 109th Av,28.046904,-82.426112
4972,4972,30th St @ 113th Av,28.050822,-82.426099
4973,4973,30th St @ Railroad Crossing,28.052574,-82.426031
4974,4974,30th St @ Pine Dr,28.056123,-82.425899
4975,4975,30th St @ Campus Hill Dr,28.060313,-82.425948
4977,4977,Bruce B Downs Blvd @ 132nd Av,28.0675,-82.42626
4978,4978,30th St @ Campus Hill Dr,28.060433,-82.426205
4979,4979,30th St @ Pine Dr,28.057753,-82.426254
4980,4980,30th St @ Railroad Crossing,28.053833,-82.426315
4981,4981,30th St @ Foxfire II Apts,28.045507,-82.426277
4984,4984,22nd St @ Rowlett Park Dr,28.027365,-82.432632
4985,4985,22nd St @ Waters Av,28.025554,-82.434517
4986,4986,22nd St @ Rowlett Park Dr,28.022692,-82.435186
4987,4987,30th St @ Pocahontas Av,28.00888,-82.42653
4989,4989,30th St @ Idlewild Av,28.001078,-82.426527
4991,4991,30th St @ Shadowlawn St,27.993739,-82.426547
4993,4993,Kennedy Blvd @ Grady Av,27.944972,-82.510287
4994,4994,Westshore Blvd @ 1311 N,27.95478,-82.523994
4996,4996,Westshore Blvd @ Main St,27.957334,-82.523976
4997,4997,Spruce St @ Westshore Blvd,27.959987,-82.524951
4999,4999,Tpa Internat'L  Airport Post Office,27.968271,-82.538498
5002,5002,Hanley Rd @ 6000 (School),28.001552,-82.562618
5003,5003,Hanley Rd @ 7937,28.01946,-82.562309
5004,5004,Hanley Rd @ Winging Way Dr,28.023445,-82.562224
5005,5005,Hanley Rd @ 7948,28.019523,-82.562623
5011,5011,W Spruce St @  N O'Brien St,27.959673,-82.531623
5013,5013,Westshore Blvd @ 1300,27.954517,-82.524287
5014,5014,Westshore Blvd @ 700 Omni Hotel,27.951446,-82.524315
5018,5018,Fletcher Av @ 1205,28.068899,-82.470216
5019,5019,Fletcher Av @ Forest Hills Dr,28.06944,-82.473495
5020,5020,Fletcher Av @ 2121,28.06856,-82.48052
5021,5021,Fletcher Av @ Armenia Av,28.066205,-82.483725
5022,5022,Fletcher Av @ Sebring Blvd,28.06585,-82.48752
5025,5025,Fletcher Av @ Reseda Ct,28.065591,-82.493366
5027,5027,Fletcher Av @ 2122,28.06824,-82.48063
5028,5028,Fletcher Av @ 1208,28.068762,-82.470344
5029,5029,Fletcher Av @ 302,28.06925,-82.461252
5030,5030,Fletcher Av @ I-275,28.069189,-82.456479
5042,5042,M L King Jr Blvd @ 42nd St,27.981498,-82.412525
5043,5043,M L King Jr Blvd @ 29th St,27.981506,-82.427809
5044,5044,M L King Jr Blvd @ 17th St,27.981563,-82.439928
5045,5045,M L King Jr Blvd @ Florida Av Es,27.98159,-82.458672
5046,5046,M L King Jr Blvd @ 2125,27.981349,-82.481676
5047,5047,Dale Mabry Hwy @ Jetton Av,27.932674,-82.505863
5049,5049,Dale Mabry Hwy @ Angeles St,27.927701,-82.505758
5051,5051,M L King Jr Blvd @ 24th St,27.981351,-82.432848
5052,5052,M L King Jr Blvd @ 26th St,27.981323,-82.430792
5053,5053,M L King Jr Blvd @ 29th St,27.981287,-82.42824
5054,5054,Harney Rd @ Hillsborough Av,27.997022,-82.384224
5055,5055,Harney Rd @ Park East Blvd,27.99953,-82.382774
5056,5056,Harney Rd @ 6429,28.002074,-82.381333
5058,5058,Harney Rd @ Tampa Bay Tech,28.008357,-82.377672
5061,5061,Sligh Av @ Peoples Park,28.010789,-82.386393
5062,5062,Sligh Av @ Halifax River Dr (6102),28.01076,-82.387852
5063,5063,Sligh Av @ River Tree Landing  Apts,28.010748,-82.389082
5064,5064,Sligh Av @ 56th St Es,28.010798,-82.392217
5065,5065,Sligh Av @ 47th St,28.010703,-82.40602
5066,5066,43Rd St @ 6522,28.008733,-82.410203
5067,5067,43Rd St @ Diana St,28.007158,-82.410203
5068,5068,43Rd St @ Fren St,28.005346,-82.410174
5069,5069,Habana Av @ North St,28.005884,-82.488529
5070,5070,Habana Av @ Rio Vista Av,27.997822,-82.488653
5071,5071,Habana Av @ Violet St,27.990185,-82.488777
5072,5072,Habana Av @ 4700,27.985137,-82.488864
5073,5073,Habana Av @ 4600,27.98227,-82.48895
5074,5074,Habana Av @ Frierson Av,27.994845,-82.48847
5075,5075,Habana Av @ Idlewild Av,28.001119,-82.488452
5076,5076,Habana Av @ Paris St,28.002839,-82.488433
5078,5078,Sligh Av @  Howard Av,28.010675,-82.482409
5079,5079,Sligh Av @ Albany Av,28.01064,-82.480312
5080,5080,Sligh Av @ Fremont Av,28.01064,-82.478965
5081,5081,Sligh Av @ Packwood Av,28.010641,-82.477607
5082,5082,Sligh Av @ Ola Av,28.010635,-82.463318
5083,5083,Sligh Av @ Duncan Av,28.010582,-82.461245
5084,5084,Sligh Av @ 19th St,28.010485,-82.438722
5085,5085,Sligh Av @ 21St St,28.010467,-82.436068
5086,5086,Hanna Av @ 30th St,28.003285,-82.425938
5088,5088,43Rd St @ 6521,28.00886,-82.410095
5089,5089,43Rd St @ Smugglers Cove,28.010132,-82.410069
5090,5090,Sligh Av @ 4405 (School),28.010589,-82.4085
5091,5091,Sligh Av @ Bream St,28.010588,-82.404245
5092,5092,Sligh Av @ 56th St Es (King High),28.010678,-82.392223
5093,5093,Sligh Av @ River Tree Apts,28.010636,-82.389352
5095,5095,Sligh Av @ Peoples Park,28.010626,-82.38693
5096,5096,Sligh Av @ 6215,28.010633,-82.382888
5097,5097,Harney Rd @ Tampa Bay Tech,28.008542,-82.377703
5098,5098,Harney Rd @ Park East Blvd,27.999965,-82.382685
5099,5099,Lumsden Rd @ Providence Rd,27.923068,-82.316268
5100,5100,Lumsden Rd @ Heather Lakes Bl West,27.923091,-82.312989
5101,5101,Lumsden Rd @ Heather Lakes Bl East,27.923102,-82.30645
5102,5102,Lumsden Rd @ Brandon Parkway,27.92305,-82.301775
5103,5103,Kings Av @ Southwood Cove,27.903477,-82.294038
5104,5104,Bloomingdale @ Bloomingdale Villas,27.893565,-82.282275
5105,5105,Bloomingdale Av @ Bryan Rd,27.89354,-82.277692
5106,5106,Bell Shoals @   Starwood  @ Walmart,27.891009,-82.26937
5108,5108,Bell Shoals Rd @ Garnet Dr,27.879305,-82.269383
5110,5110,Glenhaven Dr @ Bell Shoals Rd,27.875707,-82.268561
5111,5111,Glenhaven Dr @ Natures Way Blvd,27.876608,-82.265595
5112,5112,Natures Way Blvd @ Elm Grove Ln,27.878704,-82.266108
5113,5113,Natures Way Blvd @ Dunaire Dr,27.880995,-82.266318
5114,5114,Natures Way Blvd @ Callista Ln,27.883369,-82.265862
5117,5117,Bell Shoals Rd @ Rosemead Ln,27.88752,-82.26919
5118,5118,Bell Shoals  @ Starwood  @ Sweetbay,27.891769,-82.269197
5119,5119,Bloomingdale Av @ Bryan Rd,27.893728,-82.277272
5120,5120,Bloomingdale @ Bloomingdale Villas,27.89377,-82.28229
5121,5121,Kings Av @ Echo Dr,27.910143,-82.293858
5122,5122,Kings Av @ Tradewind Dr,27.917861,-82.293844
5123,5123,Kings Av @ Oaks Park Place,27.920594,-82.293783
5124,5124,Lumsden Rd @ Brandon Parkway,27.923424,-82.303054
5125,5125,Lumsden Rd @ Paddock Club Dr,27.923446,-82.306549
5126,5126,Lumsden Rd @ Kensington Ridge Blvd,27.923421,-82.313419
5143,5143,Sr 579 @ Wal-Mart,27.9839,-82.30229
5144,5144,Sr 579 @ Clay Pit Rd,27.98849,-82.302267
5147,5147,Sr 579 @ Wal-Mart,27.98386,-82.30247
5156,5156,Gunn Hwy @Plantation Sugarmill Dr E,28.05131,-82.522803
5164,5164,Us Hwy 41 @ Shirley Av,27.84463,-82.38171
5166,5166,Us Hwy 41 @ Symmes Rd,27.834534,-82.381912
5167,5167,Us Hwy 41 @ Mabrey Av,27.827132,-82.382028
5168,5168,Us Hwy 41 @ Ohio St,27.822058,-82.382254
5175,5175,Us Hwy 41 @ Isabel Av,27.830803,-82.381643
5176,5176,Us Hwy 41 @  Cedar Av,27.841936,-82.381482
5177,5177,Us Hwy 41 @ Shirley Av,27.844632,-82.381531
5178,5178,Gibsonton Dr @ Ethel St,27.849658,-82.379112
5180,5180,Gibsonton Dr @ Pine St,27.849633,-82.35705
5181,5181,Gibsonton Dr @ Martin Rd,27.8497,-82.364085
5183,5183,Arbor Pl @ South Davis Blvd,27.934849,-82.457702
5184,5184,Davis Bl @ One Davis Medical Bldg,27.936527,-82.459805
5185,5185,Plant Av @ W Grand Centrl Av,27.94433,-82.46271
5186,5186,Jackson St @ Franklin St,27.94676,-82.457756
5192,5192,7th Av @ 17th St,27.960158,-82.440717
5193,5193,7th Av @ 19th St,27.960149,-82.438166
5194,5194,7th Av @ 21St St,27.960302,-82.435675
5195,5195,7th Av @ 19th St,27.960321,-82.437811
5196,5196,7th Av @ 17th St,27.960296,-82.440216
5197,5197,7th Av @ 15th St,27.960321,-82.442641
5202,5202,Kennedy Blvd @ Pierce St,27.948771,-82.45482
5203,5203,Kennedy Blvd @ Franklin St,27.947639,-82.45813
5204,5204,Hyde Park Av @ Cleveland St,27.943788,-82.463991
5205,5205,Davis Blvd @ Adriatic Av,27.933114,-82.457064
5208,5208,22nd St @ Hemlock Av,27.938555,-82.43464
5209,5209,22nd St @ Oakwood Av,27.939724,-82.434592
5221,5221,Himes Av @ Heiter St,27.974951,-82.501522
5222,5222,Lois Av @ Woodlawn Av,27.9757,-82.513604
5223,5223,Lois Av @ Kentucky Av,27.978336,-82.513566
5225,5225,Hillsborough Av @ McDonalds 4333,27.996283,-82.51745
5226,5226,Hillsborough Av @ Sherwin Williams,27.996336,-82.524837
5227,5227,Hillsborough Av @ Airport Blvd 5015,27.996353,-82.527679
5231,5231,Anderson Rd @ Pioneer Park Blvd,28.013541,-82.53307
5233,5233,Anderson Rd @ 8130 Nu Air,28.022241,-82.535248
5238,5238,N Boulevard @ Arch St,27.954028,-82.468351
5239,5239,N Boulevard @ Orient St,27.980817,-82.467663
5240,5240,N Boulevard @ Warren Av,27.968436,-82.46761
5241,5241,N Boulevard @ Braddock St,27.9718,-82.46762
5242,5242,N Boulevard @ Plymouth St,27.973697,-82.467617
5243,5243,N Boulevard @ Peninsular St,27.97584,-82.467601
5244,5244,N Boulevard @ Indiana Av,27.977748,-82.467613
5245,5245,Armenia Av @ Wilder Av,27.992212,-82.484443
5246,5246,Armenia Av @ Crest Av,27.993709,-82.484411
5248,5248,Armenia Av @ 8411 Windsor Manor,28.028288,-82.484131
5249,5249,Armenia Av @  Marianna St,28.037217,-82.482889
5250,5250,Armenia Av @ Rambla St,28.034228,-82.484236
5251,5251,Armenia Av @ Skagway Av,28.031751,-82.484192
5252,5252,Armenia Av @ Windsor Manor Apts,28.026187,-82.484333
5253,5253,Armenia Av @ Silver Lake Av,28.022981,-82.484371
5254,5254,Armenia Av @ Cluster Av,28.012119,-82.484751
5255,5255,Armenia Av @ Eddy Dr,27.985496,-82.484683
5256,5256,N Boulevard @ West St,27.970707,-82.467706
5257,5257,N Boulevard @ Warren St,27.968474,-82.467684
5259,5259,Orient Rd @ 9th Av,27.962456,-82.372905
5261,5261,Broadway Av @ 71St St,27.966868,-82.375059
5263,5263,Broadway Av @ 50th St E/S,27.962008,-82.401521
5264,5264,18th Av @ 34th St,27.968269,-82.421893
5265,5265,17th Av @ 15th St,27.96732,-82.44334
5267,5267,Himes Av @ Leroy St,27.972154,-82.501551
5268,5268,Columbus Dr @ Gomez Av,27.966593,-82.491237
5270,5270,Broadwy Av @ 58th St,27.96472,-82.389784
5272,5272,Broadway Av @ Locicero Dr,27.966697,-82.377975
5274,5274,Orient Rd @ Waycross Av,27.976458,-82.372975
5275,5275,Orient Rd @ Delano Av,27.978182,-82.373032
5276,5276,Orient Rd @ I-4 Fairground Entrance,27.988367,-82.373037
5277,5277,Orient Rd @ Seminole Complex,27.992486,-82.37298
5280,5280,Hillsborough Av @ 6804,27.99634,-82.377852
5281,5281,Hillsborough Av @ Walton Way,27.996341,-82.380462
5282,5282,Hillsborough Av @ 39th St,27.996146,-82.415434
5283,5283,Hillsborough Av @ Railroad Crossing,27.996149,-82.4292
5284,5284,Hillsborough Av @ 24th St,27.996131,-82.432361
5285,5285,Hillsborough Av @ 9th Av,27.99614,-82.449632
5286,5286,Hillsborough Av @ Highland Av,27.996346,-82.461808
5290,5290,Hillsborough Av  @ Mendenhall Dr,27.996078,-82.478532
5292,5292,Hillsborough Av @ Howard Av,27.996122,-82.481814
5293,5293,Hillsborough Av @ Gomez Av,27.996191,-82.490708
5294,5294,Hillsborough Av @ Matanzas Av,27.996198,-82.495186
5295,5295,Hillsborough Av @ 3909,27.996203,-82.507826
5296,5296,Hillsborough Av @ 4021,27.996235,-82.51127
5299,5299,Hillsborough Av @ 7023,27.996661,-82.559418
5310,5310,Hillsborough Av @ Buccaneer Square,27.996843,-82.579724
5311,5311,Hillsborough Av @ 8327,27.996808,-82.577021
5312,5312,Sheldon Rd @ Bay Plaza,27.998277,-82.583032
5313,5313,Sheldon Rd @ Mohr Rd,28.002644,-82.583123
5314,5314,Sheldon Rd @ 6201,28.005113,-82.58311
5315,5315,Sheldon Rd @ 6309,28.007372,-82.58307
5316,5316,Sheldon Rd @ Mayflower Rd,28.008513,-82.583052
5317,5317,Sheldon Rd @ Fountain Av,28.010496,-82.583066
5318,5318,Sheldon Rd @ Orville Lane,28.013059,-82.582999
5319,5319,Sheldon Rd @ 7201,28.014888,-82.582962
5320,5320,Sheldon Rd @ 7301,28.0166,-82.582965
5321,5321,Sheldon Rd @ Crown Blvd,28.019969,-82.58295
5322,5322,Sheldon Rd @ Faith Outreach Ctr,28.018185,-82.582987
5323,5323,Sheldon @  8023 Sheldon Shore Apts,28.022921,-82.582925
5324,5324,Sheldon Rd @ Waters Av,28.026625,-82.58284
5325,5325,Waters Av @ Riverwood Blvd,28.025814,-82.579727
5327,5327,Waters Av @ Pinehurst Dr,28.025797,-82.571631
5331,5331,Bj'S @ Waters Av @ Hanley Rd,28.026041,-82.564447
5333,5333,Waters Av @ Flowerfield Dr,28.026063,-82.574006
5334,5334,Waters Av @ Shell Dr,28.026117,-82.576465
5335,5335,Waters Av @ River Oaks Dr,28.026088,-82.579686
5336,5336,Sheldon Rd @ Waters Av,28.024824,-82.583211
5337,5337,Sheldon Rd @ Woodlake Blvd,28.022821,-82.583265
5338,5338,Sheldon Rd @ Crown Blvd,28.019991,-82.583282
5339,5339,Sheldon Rd @ Patterson St,28.018511,-82.583304
5340,5340,Sheldon Rd @ Broad St,28.017071,-82.583324
5341,5341,Sheldon Rd @ Hamilton Av,28.015196,-82.583298
5342,5342,Sheldon Rd @ Flora St,28.013147,-82.583332
5343,5343,Sheldon Rd @ Westbay Blvd,28.010884,-82.583409
5344,5344,Sheldon Rd @ Brennan Circle,28.008326,-82.583408
5345,5345,Sheldon Rd @ Island Club Apts Ns,28.00479,-82.583481
5346,5346,Sheldon Rd @ Island Club Apt Ss,28.004392,-82.583481
5347,5347,Sheldon Rd @ Mohr Rd,28.003015,-82.583499
5348,5348,Sheldon Rd @ 7-11 Store,27.999746,-82.583534
5349,5349,Hillsborough Av @ Ross Plaza,27.996629,-82.580417
5350,5350,Hillsborough Av @ 8332,27.996594,-82.577646
5361,5361,Hillsborough Av @ 7620,27.996495,-82.566679
5362,5362,Hillsborough Av @ 7012,27.996439,-82.559243
5363,5363,Hillsborough Av @ Sawyer Rd,27.996426,-82.557181
5364,5364,Hillsborough Av @ Golden Dr,27.996397,-82.553123
5365,5365,Hillsborough Av @ Benjamin Rd,27.99622,-82.542264
5366,5366,Hillsborough Av @  5556,27.9962,-82.537742
5368,5368,Hillsborough Av @ Hesperides St,27.995974,-82.518818
5369,5369,Hillsborough Av @ Bally 4402,27.995967,-82.516195
5370,5370,Hillsborough Av @ 3918,27.995916,-82.511869
5371,5371,Hillsborough Av @ 3902,27.99589,-82.510056
5372,5372,Hillsborough Av @ Church Av,27.995837,-82.507443
5375,5375,Hillsborough Av @ Berry Av,27.995817,-82.473852
5379,5379,Hillsborough Av @ Ola Av,27.995965,-82.464239
5380,5380,Hillsborough Av @ 11th St,27.995994,-82.448125
5381,5381,Hillsborough Av  @ 20th St,27.995992,-82.436884
5382,5382,Hillsborough Av @ Market Place,27.995992,-82.431624
5383,5383,Hillsborough Av @ Railroad Crossing,27.995998,-82.429114
5385,5385,Tampa St @ Brorein St,27.943849,-82.457245
5400,5400,Hwy 60 @ Grey Hound Bus Station,27.960489,-82.72053
5401,5401,Hwy 60 @ Cross St,27.960588,-82.718096
5414,5414,Us Hwy 41 @ St Anne'S Church,27.729562,-82.433594
5415,5415,Us Hwy 41 @ Coastal Mart (1202),27.729729,-82.43396
5442,5442,Lois Av @ Union St,27.95817,-82.51378
5443,5443,Himes Av @ Walnut St,27.960574,-82.501342
5445,5445,Himes Av @ Tampa Bay Park,27.982888,-82.501252
5446,5446,Himes Av @ New Orleans Av,27.990236,-82.501031
5447,5447,Himes Av @ 5223,27.99265,-82.50098
5451,5451,Himes Av @ Humphrey St,28.029212,-82.500649
5452,5452,Gunn Hwy @ Premier North Dr,28.038617,-82.507994
5453,5453,Dale Mabry Hwy @ Linebaugh Av,28.040249,-82.504671
5454,5454,Dale Mabry Hwy @ 11511,28.053415,-82.50388
5455,5455,Dale Mabry Hwy @ Countrywood Apts,28.05941,-82.503459
5457,5457,Dale Mabry Hwy @ Colby Rd F/S,28.056376,-82.50367
5458,5458,Stall Rd @ Orange Grove Dr,28.062001,-82.500704
5470,5470,Gunn Hwy @ Premier North Dr,28.038544,-82.508288
5473,5473,Himes Av @ Colwell Av,28.034456,-82.50085
5476,5476,Himes Av @ Sitka St,28.021615,-82.500806
5477,5477,Himes Av @ Coopers Pond Apts,28.005405,-82.500946
5479,5479,Himes Av @ 5223,27.992708,-82.50114
5480,5480,Himes Av @ New Orleans Av,27.990547,-82.501237
5484,5484,Spruce St @ Marie Av,27.959549,-82.504781
5485,5485,Cypress St @ Jefferson High School,27.952383,-82.519962
5509,5509,Busch Blvd @ 2308,28.03268,-82.432393
5510,5510,Busch Blvd @ Willow Av,28.033476,-82.47161
5512,5512,Busch Blvd @ Oakleaf Av,28.033496,-82.47892
5514,5514,Busch Blvd @ Twin Lakes Blvd,28.035997,-82.492258
5515,5515,Busch Blvd @ Himes Av,28.036377,-82.500411
5516,5516,Gunn Hwy @ Hubert Av,28.045775,-82.515445
5517,5517,Gunn Hwy @ Casey Rd,28.048141,-82.51821
5518,5518,Gunn Hwy @ Country Run Rd,28.052351,-82.523706
5519,5519,Gunn Hwy @ Marbrisa Apts,28.05548,-82.528291
5520,5520,Gunn Hwy @ Four Oaks Rd,28.057225,-82.531841
5521,5521,Gunn Hwy @ Hampton Park Blvd,28.059186,-82.536
5523,5523,Gunn Hwy @ Mullis City Way,28.044354,-82.513715
5524,5524,Gunn Hwy @ Henderson Rd,28.063791,-82.549488
5525,5525,Gunn Hwy @ Normandie Rd,28.065,-82.553484
5526,5526,Gunn Hwy @ Cain Rd,28.065611,-82.557662
5527,5527,Gunn Hwy @ Landing Place Rd,28.065595,-82.560624
5529,5529,Gunn Hwy @ Community Campus Dr,28.065368,-82.56415
5531,5531,Gunn Hwy @ Cain Rd,28.065266,-82.558037
5532,5532,Gunn Hwy @ Normandie Rd,28.064529,-82.55319
5533,5533,Gunn Hwy @ Henderson Rd,28.063609,-82.550117
5534,5534,Gunn Hwy @ Wood Trail Blvd,28.06255,-82.546462
5535,5535,Gunn Hwy Hampton Park Blvd,28.05899,-82.53613
5536,5536,Gunn Hwy @ Nixon St,28.055868,-82.52966
5537,5537,Gunn Hwy @ Colonnade Exec Ctr,28.055411,-82.528775
5538,5538,Gunn Hwy @ Casey Rd,28.048045,-82.518502
5539,5539,Gunn Hwy @ Hubert Av,28.045234,-82.515102
5540,5540,Gunn Hwy @ Mullis City  Way,28.043947,-82.513628
5541,5541,Busch Blvd @ Himes Av Es,28.036229,-82.50019
5542,5542,Busch Blvd @ Twin Lakes Blvd,28.035864,-82.491983
5545,5545,Busch Blvd @ Oakleaf Av,28.033307,-82.479117
5547,5547,Busch Blvd @ Willow Av,28.033362,-82.471698
5550,5550,Busch Blvd @ Elmer St,28.032409,-82.440131
5551,5551,Busch Blvd @ 19th St,28.032391,-82.437922
5552,5552,Busch Blvd @ Traveler'S Inn,28.032418,-82.432976
5554,5554,Busch Blvd @ 29th St,28.032462,-82.426948
5556,5556,Busch Blvd @ 40th St,28.032452,-82.415647
5557,5557,Busch Blvd @ 4200,28.032451,-82.4136
5559,5559,Busch Blvd @ Broadmoor Apts,28.03244,-82.405462
5562,5562,56th St @ Kenny Dr,28.015801,-82.393581
5563,5563,M L King Bl @ I-4 Foxworth Trailers,27.981411,-82.388012
5565,5565,M L King Jr Blvd @ Fairview Park Dr,27.981305,-82.376759
5566,5566,M L King Jr Blvd @ Orient Rd E,27.981303,-82.372597
5568,5568,M L King Jr Blvd @ Beechwood Blvd,27.981318,-82.367361
5569,5569,M L King Jr Blvd @ Danny Bryan Rd,27.981315,-82.363644
5570,5570,M L King Jr Blvd @ Us Hwy 301  Ws,27.981322,-82.361345
5571,5571,M L King Jr Blvd @ Us Hwy 301 Es,27.981302,-82.357891
5572,5572,M L King Jr Blvd @ 9009,27.981301,-82.356787
5573,5573,M L King Jr Blvd @ Coconut Palm Dr,27.981208,-82.349305
5574,5574,M L King Jr Blvd @ Riga Blvd,27.981137,-82.345872
5575,5575,M L King Jr Blvd @ Cragmont Dr,27.981187,-82.341172
5576,5576,M L King Jr  Blvd @ Falkenburg Rd,27.98112,-82.336541
5577,5577,M L King Jr Blvd @ Sabal Park Ctr,27.98111,-82.335407
5578,5578,M L King Jr Blvd @ Williams Rd,27.981103,-82.319638
5579,5579,M L King Jr Blvd @ Lakewood Dr,27.981381,-82.310208
5580,5580,M L King Jr Blvd @ Hewitt St,27.981386,-82.306856
5581,5581,M L King Blvd @ Cr 579,27.981725,-82.302662
5588,5588,Providence Rd  @ Brandon  Blvd,27.936599,-82.314517
5589,5589,Providence @ Plantation Key Apts,27.931744,-82.314504
5591,5591,Providence Rd @ Town Center Blvd,27.925795,-82.315657
5595,5595,Oakfield Dr @ Hilltop Rd,27.933943,-82.305988
5596,5596,Oakfield Dr @ Buckingham Place,27.93413,-82.296017
5597,5597,Oakfield Dr @ Lifestyles Fitness,27.934203,-82.292929
5598,5598,Oakfield Dr @ Sunlake Apts,27.933981,-82.299834
5599,5599,Parsons Ave @ Robertson St,27.936144,-82.285679
5600,5600,Brandon Blvd @ Edwards Av,27.937819,-82.287001
5601,5601,Brandon Blvd @ Moon Av,27.937836,-82.288369
5604,5604,Brandon Blvd @ Lakeside Dr,27.93789,-82.30053
5605,5605,Brandon Blvd @ Limona Rd,27.937893,-82.303813
5606,5606,Providence @ Providence Pk Apts Sou,27.931689,-82.314322
5607,5607,Providence @ Providence Pk  Apts No,27.932748,-82.31438
5616,5616,M L King Jr Blvd @ Peek St,27.981734,-82.304684
5617,5617,M L King Jr Blvd @ Orange St,27.981702,-82.307629
5619,5619,M L King Jr Blvd @ Williams Rd,27.981438,-82.319171
5621,5621,M L King Jr Blvd @ McLane Dr,27.981455,-82.336211
5622,5622,M L King Jr Blvd @ Wedgemere Dr,27.981454,-82.339661
5623,5623,M L King Jr Blvd @ Cragmont Dr,27.98146,-82.341716
5624,5624,M L King Jr Blvd @ Riga Blvd,27.981411,-82.346721
5625,5625,M L King Jr Blvd @ Coconut Palm,27.981496,-82.350328
5626,5626,M L King Jr Blvd @ 9001,27.981627,-82.356827
5627,5627,M L King Jr Blvd @ Us Hwy 301 Es,27.981603,-82.358588
5628,5628,M L King Jr Blvd @ Us Hwy 301 Ws,27.981636,-82.360662
5629,5629,M L King Jr Blvd @ Danny Bryan Rd,27.981628,-82.364234
5630,5630,M L King Jr Blvd @ Cromwell Dr,27.981601,-82.367811
5632,5632,M L King Jr Blvd @ 69th St,27.981584,-82.377383
5633,5633,M L King Jr Blvd @ 6606,27.981642,-82.380708
5634,5634,M L King Blvd @ Interstate Ind Park,27.981561,-82.388023
5635,5635,M L King Jr Blvd @ Carroway St,27.98153,-82.391179
5636,5636,M L King Jr Blvd @ 54th St,27.981527,-82.395661
5638,5638,M L King Jr Blvd @ Phillips St,27.981552,-82.399608
5639,5639,Cleveland St @ Melville Av,27.943353,-82.479754
5640,5640,Manhattan Av @ Bayview Av,27.905131,-82.518479
5641,5641,Manhattan Av @ 4315,27.901694,-82.518467
5643,5643,Manhattan Av @ La Villa Lane,27.898231,-82.518458
5644,5644,Manhattan Av @ Bay Av,27.87932,-82.518699
5645,5645,Manhattan Av @ Mango Av,27.875524,-82.518687
5646,5646,Westshore Blvd @ Bay Vista Av,27.905979,-82.526778
5647,5647,Westshore Blvd @ Wallcraft Av,27.902865,-82.526758
5649,5649,Westshore Blvd @ Coachman Av,27.897685,-82.526851
5650,5650,Westshore Blvd @ McElroy Av,27.892793,-82.526907
5653,5653,Westshore Blvd @ Pearl Av,27.887564,-82.526882
5654,5654,Westshore Blvd @ Wallace Av,27.885384,-82.526896
5656,5656,Westshore Blvd @ Wisconsin Av,27.881783,-82.526921
5657,5657,Westshore Blvd @ Ohio Av,27.880202,-82.526923
5660,5660,Westshore Blvd @ Lookout Pointe,27.877274,-82.526959
5661,5661,Westshore Blvd @ McCoy St,27.869864,-82.526982
5664,5664,Westshore Blvd @ the Park,27.866793,-82.52686
5666,5666,Westshore Blvd @ Lookout Pointe Ap,27.877028,-82.526884
5667,5667,Westshore Blvd @ Ohio Av,27.880023,-82.526866
5673,5673,Euclid Av @ Royal Palm Cr W/S,27.908678,-82.521034
5677,5677,Manhattan Av @ McCoy St,27.869654,-82.518477
5680,5680,Manhattan Av @ Paul Av,27.891423,-82.518306
5681,5681,Euclid Av @ Collidge St,27.908671,-82.517259
5685,5685,Swann Av @ Gomez  Av,27.937374,-82.49124
5687,5687,Platt St @ Melville Av,27.94179,-82.479935
5695,5695,Sr 60 @ Brandon Town Center Dr,27.938818,-82.323119
5697,5697,Providence Rd @ Windingwood Av,27.919731,-82.31884
5698,5698,Providence Rd @ Sweetridge Av,27.916047,-82.318843
5699,5699,Providence Rd @ Providence Lake Blv,27.911558,-82.318865
5701,5701,Providence Rd @ Purity Lane,27.901467,-82.318647
5702,5702,Us Hwy 301 @ Balm Riverview Rd,27.865194,-82.326769
5703,5703,Gibsonton Dr @ Us Hwy 301,27.857223,-82.327892
5704,5704,Gibsonton Dr @ Gibsonton St,27.855531,-82.339706
5705,5705,Gibsonton  @ Gibsonton Elem School,27.84986,-82.36851
5706,5706,Us Hwy 41 @ Dimare Packing,27.759138,-82.401191
5707,5707,Us Hwy 41 @ Dickman Dr,27.718124,-82.434251
5714,5714,Us Hwy 41 @ Dickman Dr,27.718741,-82.433907
5715,5715,Us Hwy 41 @ Dimare Packing,27.758977,-82.400995
5716,5716,Us Hwy 41 @ P.T.G. Packing,27.784678,-82.3842
5717,5717,Us Hwy 41 @ Pembroke Rd,27.80739,-82.3841
5718,5718,Us Hwy 41 @ Beach Av  (Twin Oaks),27.840939,-82.381483
5719,5719,Gibsonton Dr @ Massachusetts St,27.849654,-82.380425
5720,5720,Gibsonton Dr @ Davis St,27.849661,-82.376694
5721,5721,Gibsonton @ Gibsonton Elem School,27.849658,-82.368921
5723,5723,Gibsonton Dr @ Fren Hill Dr,27.855187,-82.339707
5724,5724,Gibsonton Dr @ Oak Ridge Av,27.856933,-82.328216
5725,5725,Us Hwy 301 @ Rivercrest Dr,27.861044,-82.326431
5727,5727,Riverview Dr @ North St,27.871602,-82.32139
5728,5728,Providence Rd @ Dianne Cove,27.872656,-82.318297
5729,5729,Providence Rd @ Watermark 6000,27.891025,-82.318403
5731,5731,Providence Rd @ Purity Lane,27.900995,-82.318455
5732,5732,Providence @ Providence Bapt Church,27.897646,-82.31853
5733,5733,Providence Rd @ Lakewood Dr,27.92554,-82.315384
5741,5741,Sheldon Rd @ Fawn Ridge Blvd,28.062122,-82.582732
5742,5742,Sheldon Rd @ Westwind D,28.058439,-82.582744
5743,5743,Sheldon Rd @ Shelodn West Dr,28.05603,-82.582747
5744,5744,Sheldon Rd @ S Meadowview  Cr,28.053392,-82.582818
5745,5745,Sheldon Rd @ Gardner Rd,28.051059,-82.582864
5747,5747,Sheldon @ N Hills Co Health Ctr,28.038541,-82.583042
5748,5748,Sheldon Rd @ Redwood Blvd,28.036522,-82.583069
5749,5749,Sheldon Rd @ Meadow Pkwy,28.033244,-82.583145
5750,5750,Dale Mabry Hwy @ Stall Rd F/S,28.061537,-82.503947
5751,5751,Dale Mabry Hwy @ 12000,28.059027,-82.50381
5752,5752,Dale Mabry Hwy @ Colby Rd N/S,28.057028,-82.503974
5754,5754,Dale Mabry Hwy @ 11500,28.053319,-82.504196
5755,5755,Dale Mabry Hwy @ 11210,28.050735,-82.504405
5756,5756,Dale Mabry Hwy @ 11010,28.049259,-82.504475
5757,5757,Dale Mabry Hwy @ 10444,28.047112,-82.504676
5758,5758,Dale Mabry Hwy @ Lake Carroll Way,28.043629,-82.504905
5759,5759,Dale Mabry Hwy @ 10004,28.041513,-82.505016
5761,5761,Sheldon Rd @ Fountain Estates,28.030935,-82.583181
5763,5763,Waters Av @ Northbridge Blvd,28.025792,-82.575421
5764,5764,Waters Av @ Jasmine Apts,28.025732,-82.56548
5765,5765,Waters Av @ Sheldon Rd,28.026107,-82.583943
5767,5767,Sheldon Rd @ Fountain Estates,28.031479,-82.582777
5769,5769,Sheldon Rd @ Countryside Village Bl,28.033715,-82.58274
5770,5770,Sheldon Rd @ Redwood Blvd,28.036468,-82.582674
5771,5771,Sheldon @ N Hills Co Health Ctr,28.038696,-82.582617
5773,5773,Sheldon Rd @ Gardner Rd,28.050748,-82.582505
5774,5774,Sheldon Rd @ S Meadowview Cr,28.052949,-82.582459
5775,5775,Sheldon Rd @ Sheldon West Dr,28.056671,-82.582394
5776,5776,Sheldon Rd @ Westwind Dr,28.057875,-82.582396
5777,5777,Sheldon Rd @ Fawn Ridge Blvd,28.061877,-82.582362
5778,5778,Palm Av @ Florence St,27.962186,-82.450144
5779,5779,Palm Av @ Florence St,27.962445,-82.449714
5795,5795,Westshore Blvd @ Interbay Blvd,27.86606,-82.52705
5798,5798,Tampa St @ Kennedy Blvd,27.947149,-82.458768
5799,5799,S Florida Av @ Jackson St,27.947363,-82.456754
5802,5802,Us Hwy 301 @ Rivercrest Dr,27.860293,-82.326958
5809,5809,Ruskin Neighborhood Service Center,27.70568,-82.431687
5815,5815,Metro Rapid Station 63 Hidden River,28.071297,-82.358667
5816,5816,Us Hwy 41 @ South Bay Family Center,27.726563,-82.43394
5828,5828,14th Av Se @ 21St St Se,27.705712,-82.406822
5853,5853,Brandon Hcc @ Columbus Dr,27.968072,-82.328714
5863,5863,4th Av @ 21St St,27.958002,-82.435604
5864,5864,4th Av @ 21St St,27.958156,-82.435391
5870,5870,Tampa St @ Cass St,27.950808,-82.460369
5871,5871,Tampa St @ Zack St,27.949395,-82.459771
5872,5872,Tampa St @ Jackson St,27.94647,-82.458454
5876,5876,Tampa Convention Center,27.941109,-82.455153
5877,5877,S Harbour Island Bl @ Westin  Hotel,27.938401,-82.453998
5878,5878,Knights Run @ Harbour Place Dr,27.937658,-82.451346
5879,5879,Beneficial Dr @ Knights Run Av,27.938356,-82.449878
5880,5880,Harbour Place Dr @ Knights Run Av,27.938047,-82.45253
5881,5881,S Harbor Island Bl @ Westin Hotel,27.938989,-82.454029
5884,5884,N Florida Av @ Madison St,27.949142,-82.457513
5885,5885,N Florida Av @ Polk St,27.950736,-82.458172
5887,5887,Fletcher Av @ Livingston Av West,28.06913,-82.430708
5890,5890,56th St @ Fletcher Av,28.068128,-82.393833
5891,5891,56th St @ 131St Av,28.066159,-82.393819
5894,5894,56th St @ 131St Av,28.066183,-82.393516
5930,5930,Falkenburg Rd @ Broadway Av,27.973158,-82.335204
5931,5931,Falkenburg Rd @ Reeves Rd,27.970432,-82.335258
5932,5932,Falkenburg Rd @ Windhorst Rd,27.962978,-82.335348
5933,5933,Falkenburg Rd @ Fisher Rd,27.959247,-82.335281
5934,5934,Falkenburg Rd @ Cedar Run,27.955981,-82.335216
5935,5935,Woodberry Rd @ Falkenburg Rd,27.952072,-82.334207
5936,5936,Woodberrry Rd @ Hobbs St,27.952104,-82.329813
5937,5937,Grand Regency Blvd @ Tealwood Dr,27.951483,-82.325511
5938,5938,Grand Regency Bl @ Atlantic Bus Pk,27.945334,-82.32642
5939,5939,Grand Regency Bl @ Lake Kathy Rd,27.947082,-82.325568
5940,5940,Grand Regency Blvd @ Vildibill Dr,27.942127,-82.325554
5941,5941,Sr 60 @ Knights Av,27.937563,-82.289989
5942,5942,Moon Av @  Sr Hwy 60,27.937241,-82.288503
5943,5943,Moon Av @ Oakfield Dr (Hosp),27.934137,-82.288507
5945,5945,Town Center Blvd @ Providence Rd,27.925995,-82.317195
5946,5946,Town Center Blvd @ Providence Rd,27.925769,-82.317458
5947,5947,Grand Regency Blvd @ Vildibill Dr,27.943089,-82.325342
5948,5948,Grand Regency Blvd @ Lake Kathy St,27.947108,-82.325244
5950,5950,Grand Regency Blvd @ Pineberry St,27.951148,-82.325309
5951,5951,Woodberry Rd @ Hobbs St,27.952268,-82.330441
5952,5952,Woodberry Rd @ Falkenburg Rd,27.952235,-82.334693
5953,5953,Falkenburg Rd @ Cedar Run,27.955772,-82.335027
5954,5954,Falkenburg Rd @ Fisher Av,27.95827,-82.335043
5955,5955,Falkenburg Rd @ Windhorst Rd,27.963249,-82.335081
5956,5956,Falkenburg Rd @ Columbus Dr,27.966588,-82.335072
5957,5957,Falkengurg Rd @ Leroy Av,27.969653,-82.334996
5958,5958,Falkenburg Rd @ Broadway Av,27.973457,-82.33489
5969,5969,4th Av @ 16th St,27.958038,-82.441801
5970,5970,4th Av @ 18th St,27.958029,-82.43928
6007,6007,4th Av @ 19th St,27.958157,-82.437837
6008,6008,4th Av @ 18th St,27.95816,-82.43914
6009,6009,4th Av @ 16th St,27.95821,-82.441608
6010,6010,4th Av @ Republica De Cuba,27.95817,-82.444103
6043,6043,Oakfield Dr @ Noland St,27.933126,-82.290786
6045,6045,Oakfield Dr @ Buckingham Place,27.934278,-82.296156
6047,6047,Oakfield Dr @ Pauls Dr,27.934125,-82.301895
6048,6048,Oakfield Dr @ Hilltop Rd,27.934119,-82.306012
6049,6049,Oakfield Dr @ Morrison Rd,27.934346,-82.309389
6051,6051,56th St @ Commerce Park Blvd,27.986658,-82.395291
6053,6053,Sr 60 @ Kings Av,27.937467,-82.292317
6081,6081,Hanna Av @ Hesperides St,28.003771,-82.519312
6135,6135,Hesperides St @ Comanche Av,27.998039,-82.51945
6136,6136,Hesperides St @ Henry St,28.000239,-82.519349
6138,6138,Hesperides St @ Hanna Av,28.003592,-82.519427
6139,6139,Hanna Av @ Manhattan Av,28.003619,-82.51764
6141,6141,Manhattan Av @ Lambright St,28.006957,-82.517345
6143,6143,Manhattan Av @ Sligh Av,28.010311,-82.517231
6254,6254,Anderson Rd @ 8110,28.022266,-82.535561
6255,6255,Anderson Rd @ Tampa West Blvd,28.019625,-82.534425
6257,6257,Anderson Rd @ Crenshaw St,28.016068,-82.533894
6258,6258,Anderson Rd @ Pioneer Park Blvd,28.013818,-82.533412
6263,6263,Gunn Hwy @Plantation/Sugarmill Dr W,28.052839,-82.524964
6497,6497,University Area Transit Center,28.066419,-82.429872
6499,6499,27th St @ Uatc,28.066139,-82.429482
6506,6506,Linebaugh Av @ Henderson Av,28.040285,-82.548718
6519,6519,78th St @ Temple Terrace Hwy,28.032177,-82.368909
6527,6527,Metro Rapid Station 47 Fletcher Av,28.06931,-82.401747
6528,6528,Uatc Express Stop (Station 41),28.066854,-82.429486
6530,6530,Linebaugh Av @ Anderson Rd,28.040526,-82.543245
6548,6548,Linebaugh Av @ Anderson Rd,28.040119,-82.542616
6550,6550,Metro Rapid Station 46 Fletcher Av,28.069039,-82.401433
6555,6555,Busch Blvd @ 50th St,28.032484,-82.401784
6575,6575,Nebraska Av @ 138th Av,28.073125,-82.451097
6576,6576,Skipper Rd @ 1250 Skipper Rd,28.080354,-82.446185
6577,6577,Skipper Rd @ Skipper,28.080526,-82.443234
6578,6578,Bearss Av @ Gregory Dr,28.080511,-82.438237
6580,6580,Bearss Av @ 18th St,28.080529,-82.440206
6581,6581,Skipper Rd @ Skipper,28.080711,-82.443246
6582,6582,Skipper Rd @ 1250 Skipper Rd,28.080479,-82.446228
6583,6583,Skipper Rd @ Nebraska Av,28.080468,-82.450491
6584,6584,Nebraska Av @ 142nd Av,28.076379,-82.451366
6585,6585,Nebraska Av @ 140th Av,28.074662,-82.451303
6586,6586,Nebraska Av @ 138th Av,28.073065,-82.451291
6587,6587,Mulberry Dr @ Ogontz,28.021787,-82.436683
6589,6589,Sitka St @ 18th St,28.021267,-82.439098
6590,6590,Sitka St @ 17th St,28.021286,-82.440703
6591,6591,17th St @ Juneau St,28.023851,-82.440708
6592,6592,17th St @ Waters Av,28.025219,-82.440688
6593,6593,Waters Av @ Arden Av,28.025254,-82.452686
6594,6594,Waters Av @ Lamar Av,28.02532,-82.455
6597,6597,Linebaugh Av @ Central Av,28.039851,-82.456023
6598,6598,Linebaugh Av @ Arden Av,28.039833,-82.453033
6599,6599,Linebaugh Av @ Nebraska Av,28.039843,-82.450651
6600,6600,Linebaugh Av @ Jasmine Av,28.039834,-82.449709
6601,6601,Linebaugh Av @ 12th St,28.039825,-82.447611
6602,6602,Linebaugh Av @ 14th St,28.039807,-82.445351
6603,6603,Linebaugh Av @  15th St,28.039807,-82.44302
6605,6605,Linebaugh Av @ 14th St,28.039942,-82.445214
6606,6606,Linebaugh Av @ Lantana St,28.039947,-82.446717
6607,6607,Linebaugh Av @ Jasmine Av,28.03995,-82.449392
6608,6608,Linebaugh Av @ Nebraska Av,28.039983,-82.450975
6609,6609,Linebaugh Av @ Arden Av,28.039964,-82.4529
6610,6610,Linebaugh Av @ Central Av,28.039979,-82.455826
6611,6611,Linebaugh Av @ Florida Av,28.039995,-82.458239
6613,6613,Waters Av @ Lamar Av,28.025154,-82.454621
6614,6614,Waters Av @ Arden Av,28.0251,-82.453
6615,6615,Waters Av @ 17th St,28.025219,-82.440921
6616,6616,17th St @ Juneau St,28.023987,-82.440881
6617,6617,17th St @ Sitka St,28.021379,-82.440921
6618,6618,Sitka St @ 18th St,28.021144,-82.439604
6620,6620,Mulberry Dr @ Ogontz Av,28.021569,-82.436746
6622,6622,Waters Av @ Ashley St,28.025413,-82.461286
6624,6624,Waters Av @ Otis Av,28.02539,-82.46575
6625,6625,Waters Av @ N Boulevard,28.025406,-82.467541
6626,6626,Waters Av @ N Boulevard,28.025306,-82.467949
6627,6627,Waters Av @ Otis Av,28.025308,-82.46605
6629,6629,Waters Av @ Ashley St,28.025302,-82.461965
6643,6643,Livingston Av @ Campus Lodge Apts,28.089888,-82.430701
6645,6645,Magnolia Dr @ Holly Dr,28.066832,-82.420449
6647,6647,Bruce B Downs Blvd @ 138th Av,28.072313,-82.425897
6649,6649,Bearss Av @ Collegean Hall,28.080535,-82.427933
6651,6651,Sinclair Hills Rd @ Livingston Av,28.091559,-82.431349
6662,6662,Livingston Av @ 149th Av,28.08654,-82.43085
6665,6665,Livingston Av @ Bearss Av,28.08202,-82.430935
6666,6666,Bearss Av @ Reflections Apts,28.080254,-82.429241
6669,6669,Bruce B Downs Blvd @ 138th Av,28.07316,-82.426234
6674,6674,19th St @ 139th Av,28.073962,-82.438773
6683,6683,19th St @ 139th Av,28.073654,-82.43859
6684,6684,19th St @ 142nd Av,28.075574,-82.43857
6686,6686,142nd Av @ 22nd St,28.075628,-82.434707
6688,6688,Route 9 @ Yukon Transfer Center,28.029482,-82.456548
6689,6689,Route 9 @ Yukon Transfer Center,28.029519,-82.456416
6763,6763,Westfield Citrus Park Mall,28.066258,-82.5769
6764,6764,Westfield Citrus Park,28.065943,-82.575536
6767,6767,Hillsborough Av @ N Boulevard,27.996308,-82.467876
6768,6768,Hillsborough Av @ McKay Av,27.996062,-82.472677
6769,6769,Hillsborough Av @ Forest Hills Dr,27.996053,-82.47443
6770,6770,Hillsborough Av @ Beacon Av,27.995782,-82.472627
6771,6771,Hillsborough Av @ Lee Place,27.995846,-82.469557
6772,6772,Hillsborough Av @ N Boulevard,27.995946,-82.467704
6781,6781,Hillsborough Loop Dr @ Brown Pelica,27.8561,-82.488621
6786,6786,Channelside Dr @ Jefferson St,27.943482,-82.452116
6801,6801,Causeway Blvd @ Ed Morse Cadillac,27.922917,-82.328141
6820,6820,Gunn @ Mullis City Way (4126Rts),28.042114,-82.511338
6821,6821,Gunn @ Mullis City Way (Tire Plus),28.04211,-82.510906
6832,6832,Zemke Av @ Centcom,27.860376,-82.489898
6833,6833,Zemke Av @ Centcom,27.860548,-82.49005
6838,6838,N Boulevard @ Frances Av,27.965008,-82.467634
6854,6854,N Boulevard @ Columbus Dr,27.967177,-82.46769
6855,6855,N Boulevard @ Park Av,27.964308,-82.467723
6874,6874,Drew St @ Eddie C Moore Complex,27.968108,-82.717109
6876,6876,Temple Terrace Hwy @ Hamilton Hills,28.03277,-82.361743
6877,6877,56th St @ 127th Av,28.062118,-82.393488
6891,6891,Waters Av @ Sheldon Rd,28.02581,-82.582524
6892,6892,56th St @ 127th Av,28.061211,-82.393806
6898,6898,Florida Av @ 111th Av,28.049842,-82.459328
6899,6899,Florida Av @ 115th Av,28.052411,-82.459314
6900,6900,15th St @ 139th Av,28.073907,-82.443011
6901,6901,Fletcher Av @ 23Rd St,28.069131,-82.43255
6902,6902,Fletcher Av @ 23Rd St,28.069226,-82.432315
6903,6903,Fletcher Av @ 22nd St,28.069217,-82.434758
6904,6904,Metro Rapid Station 40 Fletcher Av,28.069263,-82.435741
6905,6905,15th St @ 139th Av,28.073763,-82.442839
6907,6907,Florida Av @ Fletcher Av  F/S,28.068265,-82.459445
6908,6908,Florida Av @ 135th Av,28.071281,-82.45925
6909,6909,Florida Av @ 148th Av,28.083684,-82.459479
6910,6910,Nebraska Av @ Bearss Av,28.086248,-82.45159
6912,6912,Nebraska Av @ 142nd Av,28.076117,-82.451117
6914,6914,Florida Av @ 148th Av,28.083748,-82.459672
6916,6916,Florida Av @ 111th Av,28.048091,-82.459491
6917,6917,Florida Av @ 115th Av,28.053017,-82.459495
6918,6918,Florida Av @ Mohawk Av,27.997112,-82.459511
6920,6920,Florida Av @ Bank Of America,28.041806,-82.459591
6923,6923,Bearss Av @ 1913 Pine Lake Plaza,28.08035,-82.436424
6925,6925,Nebraska Av @ Skagway Av,28.031881,-82.451357
6927,6927,Metro Rapid Station 6 Nebraska Av @,27.95715,-82.451298
6930,6930,Temple Terrace Hwy @ Hamilton Hill,28.03248,-82.361126
6931,6931,Harney Rd @ Steamboat Ln,28.023258,-82.368845
6935,6935,Nebraska Av @ 93Rd Av,28.03379,-82.451362
6936,6936,Nebraska Av @ 112th Av,28.049714,-82.451095
6937,6937,Nebraska Av @ 114th Av,28.052787,-82.451057
6938,6938,Hwy 60 @ Meadowlark Pl,27.96064,-82.71195
6941,6941,Kennedy Blvd @ Gray Ct,27.944644,-82.498594
6946,6946,Himes Av @ Colwell Av,28.034157,-82.500663
6947,6947,Himes Av @ Busch Blvd,28.035923,-82.500553
6952,6952,Himes Av @ Aileen St,27.968037,-82.501537
6953,6953,Himes Av @ St Joseph St,27.966027,-82.501566
6954,6954,Himes Av @ St Conrad St,27.964147,-82.501472
6962,6962,131St Av @ 22nd St,28.065604,-82.435042
6963,6963,Florida Keys Av @ Cypress Stand St,27.852641,-82.486202
6964,6964,Holly Dr @ Pine Dr @ Crosswalk,28.065986,-82.424493
6968,6968,Marion Transit Center,27.95464,-82.45797
6970,6970,International Plaza,27.962767,-82.517985
6981,6981,Dick Greco Plaza,27.94119,-82.454991
6990,6990,Magnolia Dr @ Alumni Dr,28.058713,-82.419822
6991,6991,Columbus Dr @ Tech Blvd,27.966641,-82.329693
6992,6992,Columbus Dr @ Tech Blvd,27.966828,-82.329496
7000,7000,Falkenburg Rd @ Columbus Dr,27.965922,-82.335375
7008,7008,56th St @ Puritan Rd Ns,28.021197,-82.393535
7010,7010,Swann Av @ Edison Av,27.937337,-82.469627
7011,7011,Dale Mabry Hwy @ Elmwood Terrace,27.877728,-82.506577
7012,7012,Dale Mabry Hwy @ Elmwood Terrace,27.877381,-82.506295
7013,7013,Dale Mabry Hwy @ Cam St,27.903806,-82.506003
7015,7015,M L King Jr Blvd @ 6605,27.981335,-82.380598
7016,7016,Osborne Av @ 40th St,27.988711,-82.414616
7017,7017,40th St @ Norfork St,28.011886,-82.414913
7019,7019,40th St @ River Pines Apts,28.017564,-82.413979
7021,7021,34th St @ 21St Av,27.96958,-82.422425
7022,7022,17th Av @ 29th St,27.967544,-82.428349
7023,7023,21St St @ 11th Av,27.96344,-82.435558
7024,7024,Palm Av @ Nuccio Pkwy,27.962477,-82.446424
7025,7025,Palm Av @ Nuccio Pkwy,27.962259,-82.447107
7026,7026,Magnolia Dr @ Laurel Dr,28.061612,-82.419617
7027,7027,Leroy Collins Blvd @ Fowler Av,28.054976,-82.413421
7028,7028,56th St @ 11402,28.051325,-82.393849
7029,7029,56th St @ Serena Dr,28.042858,-82.393691
7030,7030,34th St @ Palifox St,27.986847,-82.422527
7031,7031,15th St @ Mohawk Av,27.996711,-82.442845
7032,7032,Waters Av @ Branch Av,28.025361,-82.457824
7034,7034,15th St @ College Park Lane,28.055626,-82.442757
7035,7035,Waters Av @ Branch Av,28.02519,-82.457854
7036,7036,Nuccio Pkwy @ 13th St,27.963415,-82.445814
7037,7037,Rome Av @ Ferris Av,27.982782,-82.476529
7038,7038,N Boulevard @ El Portal Dr,28.032269,-82.467675
7039,7039,Country Club Dr @ Country Club Pl,28.054676,-82.464526
7040,7040,N Boulevard @ Bougainvillea Av,28.043715,-82.467791
7041,7041,Dale Mabry Hwy @ Fair Oaks Av,27.901903,-82.506021
7043,7043,Nuccio Pkwy @ 13th St,27.963219,-82.445527
7044,7044,M L King Jr Blvd @ Berkley Dr,27.981354,-82.368604
7045,7045,Armenia Av @ 6905,28.011873,-82.484554
7046,7046,Linebaugh Av @ Valle Dr,28.039927,-82.477894
7047,7047,Armenia Av @ Armenia Place,28.03583,-82.48349
7048,7048,Armenia Av @ Hanna Av,28.003479,-82.484451
7049,7049,Armenia Av @ Burke St,28.002232,-82.484454
7050,7050,Armenia Av @ Clifton St,28.000631,-82.484459
7052,7052,N Boulevard @ Braddock St,27.972157,-82.4677
7053,7053,Bearss Av @ Livingston Av,28.080511,-82.430206
7054,7054,Livingston Av @ 148th Av,28.083659,-82.430742
7058,7058,Macdill Av @ S Adams St,27.869116,-82.494161
7060,7060,Macdill Av @ Paxton Av,27.888086,-82.493809
7061,7061,Waters Av @ Perry Ellis Int'L,28.025343,-82.529314
7062,7062,Waters Av @ Willow Av,28.025232,-82.471493
7070,7070,Dale Mabry Hwy @ Beach St,27.963714,-82.505422
7072,7072,M L King Jr Blvd @ 20th St,27.981278,-82.4377
7073,7073,M L King Jr Blvd @ 39th St,27.98133,-82.41635
7074,7074,M L King Jr Blvd @ Park Oaks Blvd,27.981438,-82.332329
7076,7076,Hillsborough Av @ Orient Rd,27.996357,-82.373551
7084,7084,Causeway Blvd @ Ventura Av,27.92278,-82.34484
7085,7085,Causeway Blvd @ Vemtura Av,27.923113,-82.344372
7087,7087,Orient Rd @ King Alfred Dr,27.982571,-82.373234
7088,7088,Broadway Av @ 64th St,27.96642,-82.383606
7089,7089,Broadway Av @ 61St St,27.965766,-82.386095
7091,7091,Broadway Av @ 53Rd St,27.963281,-82.39616
7092,7092,Broadway Av @ 52nd St,27.962754,-82.398297
7094,7094,Manhattan Av @ Euclid Av,27.907946,-82.518048
7095,7095,Ingraham St @ Kissimmee St,27.862099,-82.529019
7099,7099,Hillsborough Av @ 44th St,27.996189,-82.408227
7100,7100,Hillsborough Av @ Airport Blvd,27.996125,-82.527318
7101,7101,Winn Dixie Pnr @ Apollo Beach Blvd,27.767959,-82.393938
7102,7102,Hillsborough Av @ 4941,27.996,-82.403546
7104,7104,Hillsborough Av @ Beaumont Ctr Blvd,27.996275,-82.549156
7109,7109,Citrus Park Dr @ Gunn Hwy/ Circle K,28.066275,-82.570779
7111,7111,Citrus Park Dr @ Easy St,28.065957,-82.571095
7113,7113,Arbor Place @ Davis Blvd,27.934686,-82.457621
7114,7114,Columbia Dr @ Davis Blvd,27.936507,-82.458826
7116,7116,Sligh Av @ 10th St,28.010548,-82.44931
7117,7117,Sligh Av @ Riverhills Church Of God,28.010659,-82.380791
7118,7118,Sligh @ Riverhills Church Of God,28.010822,-82.380801
7128,7128,21St St Se @ 14th Av Se,27.705911,-82.406631
7133,7133,Kelly Rd @ Swindon Rd,27.986257,-82.565016
7137,7137,Boy Scout Blvd @ Lois Av,27.963437,-82.515942
7143,7143,Channelside Dr @ Caesar St,27.943629,-82.449774
7144,7144,22nd St @ 26th Av,27.97376,-82.434799
7145,7145,Habana Av @ Mohawk Av,27.996672,-82.488632
7146,7146,Sligh Av @ 56th St W/S,28.010793,-82.394883
7149,7149,Boardwalk @ Morris Bridge Rd,28.053424,-82.360366
7150,7150,Boardwalk @ Morris Bridge Rd,28.053593,-82.360549
7151,7151,78th St @ Renald Blvd,28.027369,-82.36868
7152,7152,78th St @ Sequoia Dr,28.030294,-82.368708
7154,7154,Davis Rd @ Temple Terrace Hwy,28.033224,-82.3564
7155,7155,Davis Rd @ Copeland Rd,28.035603,-82.35644
7156,7156,Davis Rd @ Christi Ct,28.043841,-82.356351
7157,7157,Davis Rd @ Morris Bridge Rd,28.050668,-82.356436
7158,7158,Fowler Av @ Morris Bridge Rd,28.054416,-82.363019
7159,7159,Fowler Av @ Riverhills Dr,28.054495,-82.36943
7162,7162,Fowler Av @ Raintree Blvd,28.054563,-82.386356
7163,7163,Fowler Av @ 60th St,28.054535,-82.389295
7164,7164,Fowler Av @ 56th St,28.05456,-82.39289
7166,7166,Fowler Av @ 62nd St,28.054227,-82.384613
7167,7167,Fowler Av @ Moffat Place,28.054206,-82.380071
7168,7168,Fowler Av @ Gillette Av,28.054204,-82.376148
7169,7169,Fowler Av @ Riverhills Dr,28.054136,-82.368059
7170,7170,Fowler Av @ Morris Bridge Rd,28.054079,-82.362292
7171,7171,Davis Rd @ Morris Bridge Rd,28.050578,-82.356619
7172,7172,Davis Rd @ Christi Ct,28.044221,-82.356554
7174,7174,Davis Rd @ Copeland Rd,28.035682,-82.356572
7175,7175,Davis Rd @ Temple Terrace Hwy,28.033092,-82.356565
7177,7177,78th St @ Renald Blvd,28.027528,-82.368805
7179,7179,4th Av @ 19th St,27.958002,-82.437568
7184,7184,Dale Mabry Hwy @ Columbus Dr,27.966098,-82.505317
7185,7185,Temple Terrace Hwy @ 78th St Fs,28.03262,-82.368364
7186,7186,Linebaugh Av @ Florida Av,28.0399,-82.458861
7187,7187,M L King Jr Blvd @ Ola Av,27.981517,-82.463625
7188,7188,M L King Jr Blvd @ Ola Av,27.981583,-82.463695
7193,7193,Florida Av @ 12738,28.062569,-82.459454
7194,7194,Kennedy Bl @ Lincoln Av,27.944654,-82.496903
7196,7196,Cass St @ Ashley Dr,27.950428,-82.46216
7197,7197,Hillsborough Av @ Jamaica St,27.996017,-82.494618
7198,7198,56th St @ King High School,28.008912,-82.393405
7199,7199,Gunn Hwy @ Birmingham St,28.063303,-82.547805
7210,7210,Grand Regency Blvd @ Holiday Inn,27.945244,-82.326184
7213,7213,Us Hwy 41 @ Apollo Beach Blvd,27.769362,-82.391452
7215,7215,Providence @ Providence Park  Apts,27.933157,-82.314492
7221,7221,Columbus Dr @ Himes Av,27.966887,-82.500473
7225,7225,Waters Av @ 9th St,28.025223,-82.450426
7226,7226,Waters Av @ 9th St,28.025091,-82.450528
7228,7228,Waters Av @ 12th St,28.025137,-82.447437
7229,7229,Palm River Rd @ Maydell Dr,27.94163,-82.384978
7230,7230,Progress Blvd @ 85th St,27.899007,-82.362836
7231,7231,Progress Blvd @ 86th St,27.899006,-82.361642
7232,7232,Progress Blvd @ Us Hwy 301 W/S,27.893726,-82.340663
7233,7233,Bloomingdale Av @ Us Hwy 301 E/S,27.893613,-82.335969
7235,7235,Bloomingdale Av @ Cricket Hollow Dr,27.8936,-82.32571
7236,7236,Bloomingdale Av @ Providence Rd,27.893533,-82.320287
7237,7237,Providence Lakes @ Lake Lucerne Way,27.912138,-82.319451
7238,7238,Providence Lakes Blvd @ Ladora Dr,27.912114,-82.321366
7239,7239,Gornto Lake Rd @ Aston Commons Plac,27.91544,-82.323515
7240,7240,Gornto Lake Rd @ Causeway Blvd N/S,27.921925,-82.322626
7241,7241,Gornto Lake Rd @ Causeway Blvd F/S,27.921418,-82.32296
7242,7242,Gornto Lake Rd @ Astor Commons Plac,27.915812,-82.323858
7243,7243,Providence Lakes Blvd  @ Ladora Dr,27.911916,-82.323196
7245,7245,Bloomingdale Av @ Cricket Hollow Dr,27.893715,-82.324065
7246,7246,Bloomingdale Av @ Duncan Rd,27.893807,-82.330627
7247,7247,Bloomingdale Av @ Bandera Springs C,27.893856,-82.334137
7248,7248,Progress Blvd @ 86th St,27.899268,-82.36178
7249,7249,Palm River Rd @ Maydell Dr,27.941852,-82.385007
7272,7272,140th Av @ 12th St,28.074722,-82.446937
7273,7273,140th Av @ North Towne Ct,28.0747,-82.448988
7280,7280,22nd St @ Hemlock St,27.938275,-82.434805
7283,7283,Causeway Blvd @ 45th St,27.922935,-82.407823
7284,7284,Causeway Blvd @ Sagasta St,27.922871,-82.404645
7285,7285,Causeway Blvd @ 50th St,27.92287,-82.401032
7286,7286,Causeway Blvd @ 54th St,27.922703,-82.392955
7287,7287,Causeway Blvd @ 58th St,27.922702,-82.389889
7288,7288,Causeway Blvd @ Maydell Dr,27.922663,-82.384677
7289,7289,Causeway Blvd @ 66th St,27.922634,-82.380709
7290,7290,Causeway Blvd @ 70th St,27.922605,-82.377207
7291,7291,Causeway Blvd @ 70th St,27.922767,-82.376742
7292,7292,Causeway Blvd @ 66th St,27.922806,-82.381205
7293,7293,Causeway Blvd @ Maydell Dr,27.922826,-82.384747
7294,7294,Causeway Blvd @ 58th St,27.922865,-82.389717
7295,7295,Causeway Blvd @ 54th St,27.922876,-82.393441
7298,7298,Causeway Blvd @ 45th St,27.923098,-82.407843
7307,7307,Cypress St @ Westshore Blvd,27.952407,-82.523901
7316,7316,Citrus Park Super Wal-Mart,28.062214,-82.550642
7330,7330,Boyette Rd @ Us Hwy 301,27.857021,-82.325384
7331,7331,Boyette Rd @ Us Hwy 301,27.857184,-82.325303
7332,7332,Hillsborough Av @ 59th St,27.99632,-82.39047
7333,7333,Hillsborough Av @ 59th St,27.99602,-82.389158
7335,7335,Westshore Plaza,27.94881,-82.525598
7340,7340,Citrus Park Dr @ Sheldon Rd,28.065771,-82.580681
7341,7341,Sheldon Rd @ Citrus Park Dr,28.064512,-82.582346
7342,7342,Citrus Park Dr @ Sheldon Rd,28.065706,-82.580242
7346,7346,M L King Jr Blvd @ Burdines Dr,27.981414,-82.495843
7373,7373,Providence Rd @ Bloomingdale Av N/S,27.893984,-82.318597
7375,7375,N Boulevard @ Cypress St,27.951807,-82.468374
7376,7376,N Boulevard @ Main St,27.956958,-82.468318
7377,7377,N Boulevard @ Ross Av,27.963072,-82.467643
7378,7378,N Boulevard @ Columbus Dr,27.967271,-82.467605
7379,7379,N Boulevard @ Ross Av,27.963021,-82.46776
7380,7380,N Boulevard @ Main St,27.957185,-82.468434
7381,7381,N Boulevard @ Arch St,27.954361,-82.468508
7383,7383,Sligh Av @ Hesperides St,28.010822,-82.519176
7386,7386,Anderson Rd @ Corp Lake Dr (Amc ),28.034506,-82.541181
7387,7387,Linebaugh Av @ Henderson Rd,28.040665,-82.548789
7388,7388,Henderson Rd @ Quail Ridge Dr,28.045499,-82.549738
7389,7389,Henderson Rd @ Palmview Ct,28.049936,-82.549714
7391,7391,Henderson Rd @ Cedar Creek Blvd,28.059888,-82.549625
7392,7392,Henderson Rd @ Cedar Creek Blvd,28.059903,-82.549782
7394,7394,Henderson Rd @ Palmview Ct,28.050226,-82.549896
7395,7395,Henderson Rd @ Airview Dr,28.04635,-82.549912
7399,7399,Sligh Av @ Hesperides St,28.010699,-82.518994
7400,7400,Falkenburg Rd @ Queen Palm Dr,27.975431,-82.334887
7401,7401,Falkenburg Rd @ Princess Palm Av,27.978882,-82.334924
7402,7402,Falkenburg Rd @ Princess Palm Av,27.978766,-82.33517
7403,7403,Falkenburg Rd @ Queen Palm Dr,27.974526,-82.335223
7404,7404,Anderson Rd @ Waters Av,28.024847,-82.537339
7405,7405,Bruce B Downs Blvd @ N 37th St,28.080509,-82.41816
7406,7406,Skipper Rd @ 42nd St,28.080382,-82.414472
7407,7407,N 42nd St @ Hellenic Dr,28.078251,-82.414225
7408,7408,N 42nd St @ Vanderbilt Dr,28.076159,-82.414134
7411,7411,Harney Rd @ Sligh Av N/S,28.011752,-82.375927
7412,7412,Sligh Av @ Orient Rd,28.010655,-82.373476
7413,7413,Orient Rd @ Park East Blvd,28.000376,-82.37322
7414,7414,Orient Rd @ Hillsborough Av N/S,27.996857,-82.373114
7415,7415,Orient Rd @ Hillsborough Av F/S,27.996663,-82.37297
7416,7416,Orient Rd @ Park East Blvd,28.000348,-82.373081
7417,7417,Orient Rd @ Sligh Av N/S,28.010591,-82.37315
7418,7418,Sligh Av @ Harney Rd,28.01081,-82.376029
7421,7421,N 42nd St @ Reuter Strasse Cr,28.07831,-82.414113
7423,7423,Bruce B Downs Blvd @ N 37th St,28.080805,-82.417712
7424,7424,Bruce B Downs @ Lake Forest Dr,28.080746,-82.420958
7426,7426,Bruce B Downs Bl @ Tower Diagnostic,28.077143,-82.426027
7427,7427,Bruce B Downs Blvd @ Lake Forest Dr,28.080519,-82.422141
7430,7430,N 42nd St @ Winding Moss Trail,28.076111,-82.414026
7431,7431,Bruce B Downs Bl @ Barnhard (Ntic),28.077303,-82.426335
7432,7432,Oakfield Dr @ Bob Dykes Dr,27.93414,-82.2993
7433,7433,Bruce B Downs Bl @ Medical Park Dr,28.070736,-82.426213
7434,7434,Metro Rapid Station 45 Fletcher Av,28.06926,-82.4144
7435,7435,Bloomingdale @ Duncan Rd Home Depot,27.89351,-82.332964
7437,7437,Fletcher Av @ 53Rd St,28.069064,-82.395695
7438,7438,Drew St @ Us Hwy 19,27.968072,-82.727184
7439,7439,S Old Coachman Rd @ Nash St,27.96422,-82.73403
7440,7440,Gulf To Bay Blvd @ Bypass Dr,27.960393,-82.733203
7441,7441,Gulf To Bay Blvd @ Us Hwy 19,27.960399,-82.727877
7442,7442,Gulf To Bay Blvd @ Park Place Blvd,27.960485,-82.725415
7443,7443,Orient Rd @ Tampa Bay Tech,28.008572,-82.373264
7444,7444,Orient Rd @ Tampa Bay Tech,28.008407,-82.373127
7445,7445,Bayview Av @ Carolina Av,27.960974,-82.712691
7446,7446,Bayview Av @ Tanglewood Dr,27.964913,-82.712794
7452,7452,Us Hwy 301 @ Big Bend Rd,27.791459,-82.335082
7453,7453,Us Hwy 301 @ Big Bend Rd,27.792809,-82.334878
7456,7456,Dover Park-N-Ride,27.938195,-82.220798
7459,7459,78th St @ Harney Rd,28.023566,-82.368865
7462,7462,Culbreath Rd @ Bloomingdale Av,27.891532,-82.246828
7463,7463,Culbreath @ Bloomingdale Pnr,27.890744,-82.246657
7466,7466,Bruce B Downs @ Commerce Palms Pnr,28.114878,-82.378873
7467,7467,Henderson Rd @ Americas Cup Av,28.053803,-82.549698
7468,7468,Henderson Rd @ Americas Cup Av,28.05392,-82.549871
7469,7469,Cass St @ Governor St,27.952911,-82.453454
7470,7470,Cass St @ Governor St,27.953065,-82.453575
7471,7471,Florida Keys @ Seminole Indian Plac,27.852638,-82.491329
7472,7472,Hillsborough Loop Dr @Brown Pelican,27.855638,-82.48942
7473,7473,Florida Keys @ Seminole Indian Plac,27.852484,-82.491774
7474,7474,Cypress St @ Reo St,27.952288,-82.53605
7475,7475,Cypress Point  Park,27.950443,-82.542274
7477,7477,Boyette Rd @ McMullen Rd,27.853481,-82.304213
7479,7479,Anderson @ Benjamin @ Green Iguana,28.031247,-82.53992
7480,7480,Anderson @ Benjamin @ Green Iguana,28.031192,-82.540335
7481,7481,4th Av @ Republica De Cuba F/S,27.958038,-82.444038
7482,7482,M L King Jr Blvd @ I-275,27.981576,-82.45278
7484,7484,Sheldon Rd @ Linebaugh Av F/S,28.043947,-82.582991
7485,7485,Howard Av @ Kathleen St,27.967621,-82.482701
7487,7487,Bloomingdale Av @ Bell Shoals Rd,27.893737,-82.270296
7488,7488,Bloomingdale Av @ Bell Shoals Rd,27.893574,-82.270245
7489,7489,Waters Av @ Benjamin Rd F/S,28.02545,-82.541281
7490,7490,30th St @ Va Hospital @ Sky Walk,28.064336,-82.426242
7496,7496,Florida Av @ 131St Av,28.065412,-82.459262
7499,7499,Brandon Blvd @ Knights Av,27.937863,-82.290363
7500,7500,Brandon Blvd @ Kings Av Fs,27.937868,-82.294341
7501,7501,Brandon Blvd @ Caldwell Dr,27.937873,-82.298198
7502,7502,Sr 60 @ Gornto Lake Dr,27.937908,-82.31904
7503,7503,Sr 60 @ Providence Rd,27.937831,-82.315022
7504,7504,Sr 60 @ Gornto Lake Rd,27.937454,-82.318424
7505,7505,Sr 60 @ Hilltop Rd,27.937521,-82.306185
7506,7506,Brandon Blvd @ Clock Tower Dr,27.937872,-82.296801
7508,7508,7th Av @ 34th St,27.960274,-82.422259
7509,7509,Durham St @ 24th St,27.950693,-82.432597
7510,7510,N 26th St @ Marconi St,27.950221,-82.430795
7511,7511,N 26th St @ Corrinne St,27.948718,-82.430795
7512,7512,S 26th St @ E Stuart St,27.94735,-82.4303
7513,7513,E Stuart St @ S 24th St,27.947377,-82.432628
7514,7514,S 22nd St @ E Linsey St,27.946608,-82.434815
7515,7515,S 22nd St @ E Gordon St,27.944887,-82.434795
7516,7516,S 22nd St @ E Stuart St,27.944995,-82.434612
7517,7517,E Stuart St @ S 24th St,27.94716,-82.43276
7518,7518,S 26th St@ E Corrinne St Desoto Pk,27.948292,-82.430056
7519,7519,N 26th St @ E Corrinne St,27.948763,-82.430613
7520,7520,N 26th St @ E Marconi St,27.950095,-82.430583
7521,7521,E Durham St @ N 22nd St,27.950874,-82.434713
7523,7523,Crossroads United Methodist Pnr,28.172537,-82.382659
7524,7524,Bloomingdale @ Van Gogh Cr,27.893702,-82.289236
7525,7525,Bloomingdale Ave @ Van Gogh Cr,27.893539,-82.289034
7526,7526,Williams Rd @ Williams Landing Cr,27.977397,-82.318833
7527,7527,Lakewood Dr @ thomas St,27.980802,-82.310614
7528,7528,Williams Rd @ Black Swan Ct,27.977171,-82.318641
7531,7531,South 301 Pnr Sr 674  @ Wal-Mart,27.716648,-82.33277
7532,7532,Hillsborough Av @ Himes Av,27.996221,-82.501659
7533,7533,Victorious Life Church Pnr,28.248141,-82.355116
7535,7535,Super Wal-Mart @ Gibsonton Dr,27.848114,-82.353265
7536,7536,Progress Blvd @ 83Rd St,27.899017,-82.364344
7538,7538,Us Hwy 301 @ Gibsonton Dr,27.856497,-82.326851
7539,7539,Main St @ Rome Av,27.957162,-82.477026
7540,7540,Main St @ Rome Av,27.95699,-82.476388
7541,7541,Waters Av @ Himes Av,28.025599,-82.501356
7542,7542,Busch Blvd @ Armenia Av,28.033269,-82.48389
7543,7543,Erindale Dr @ Wrencrest Cr,27.884354,-82.239965
7544,7544,Erindale Dr @ Wrencrest Cr,27.884436,-82.240157
7545,7545,Cypress St @ Renellie St,27.952154,-82.523333
7546,7546,Westshore Blvd @ Cypress St,27.952669,-82.523992
7547,7547,Hillsborough Av @ Armenia Av,27.996194,-82.48457
7548,7548,Duncan Rd @ Bloomingdale Av,27.893281,-82.330809
7549,7549,Gornto Lake Rd @ Bloomingdale Av,27.894078,-82.330616
7556,7556,Pebble Beach Bl @ Sun City Ctr Pz,27.71421,-82.352148
7557,7557,N Pebble Beach Bl @ Sun City Center,27.717247,-82.354154
7560,7560,Southshore Service Ctr Express Stop,27.716546,-82.392431
7561,7561,Floribraska Av @ Nebraska Av,27.970853,-82.451563
7562,7562,Floribraska Av @ Central Av,27.970961,-82.455462
7563,7563,Floribraska Av @ Florida Av,27.97097,-82.459331
7564,7564,Floribraska Av @ Central Av,27.970798,-82.455371
7565,7565,Floribraska Av @ Nebraska Av,27.97069,-82.451249
7567,7567,Cypress St @ Ins/Homeland Security,27.95241,-82.540596
7569,7569,Danube Av @ Chesapeake Av,27.924415,-82.453297
7570,7570,E Davis Blvd @ Bosphorous Av,27.929053,-82.455525
7571,7571,E Davis Blvd @ Barbados Av,27.927015,-82.453713
7573,7573,Mt Zion Assembly Of God  Pnr,28.029546,-82.157672
7576,7576,Northwest Transfer Center,28.028126,-82.584433
7577,7577,S Manhattan Av @ W Bay Vista Av,27.90675,-82.518259
7578,7578,S Manhattan Av @ Oakellar Av,27.896604,-82.518492
7580,7580,Burnett Pk Pnr @Cr579 @ Clay Pit Rd,27.988445,-82.302449
7581,7581,Metro Rapid Station 42Fletcher Av @,28.068971,-82.419936
7582,7582,56th St @ Mission Hills Av,28.03996,-82.393682
7583,7583,56th St @ 98th Av,28.03843,-82.393633
7585,7585,Dale Mabry Hwy @ Watrous Av,27.931832,-82.505883
7586,7586,Harney Rd @ Netpark Transfer Center,27.989455,-82.390985
7587,7587,Netpark Transfer Center,27.989654,-82.391481
7588,7588,Dale Mabry Hwy @ Pinewood St,27.868765,-82.506501
7589,7589,Dale Mabry Hwy @ Pinewood St,27.868928,-82.506157
7590,7590,56th St @ E Fowler Av,28.053579,-82.393908
7591,7591,Bell Shoals Rd @ Rosemead Lane,27.886072,-82.26938
7592,7592,Manhattan Av @ Wallcraft Av,27.903217,-82.518347
7593,7593,Manhattan Av @ Fair Oaks Av,27.900192,-82.518334
7595,7595,West Tampa Transfer Center,27.977701,-82.501088
7596,7596,Himes Av @ Ohio Av @ Bus Bay,27.97771,-82.501301
7597,7597,Henderson Rd @ Logan Gate Blvd,28.057968,-82.549643
7598,7598,Henderson Rd @ Logan Gate Blvd,28.057207,-82.549916
7599,7599,Himes Av @ W Hamilton Av,28.014261,-82.500872
7608,7608,Fishhawk Sports Complex Pnr,27.854933,-82.210817
7611,7611,Nebraska Av @ 19th Av,27.968716,-82.45129
7612,7612,Fowler Av @ Gillette St,28.05454,-82.377192
7613,7613,Fowler Av @ Hoyt St,28.054542,-82.381642
7615,7615,Fowler Av @ 52nd St,28.054242,-82.397669
7616,7616,Nebraska Av @ E Emily St,27.975699,-82.451078
7617,7617,Nebraka Av @ Osborne Av,27.989093,-82.451029
7619,7619,Nebraska Av @ 24th Av,27.972746,-82.45128
7620,7620,Nebraska Av @ Saint Clair St,27.970183,-82.451097
7621,7621,Gornto Lake Rd @ Causeway Blvd,27.923637,-82.322654
7622,7622,Gornto Lake Rd @ Causeway Blvd,27.923619,-82.322977
7623,7623,Hcc Southshore Campus,27.723574,-82.402282
7626,7626,Sheldon Rd @ Linebaugh Av,28.044899,-82.582567
7627,7627,Boyette Rd @ McMullen Rd,27.853643,-82.30396
7628,7628,Columbus Dr @ 43Rd St (Dacco),27.966638,-82.409336
7629,7629,Columbus Dr @ 43Rd St (Dacco),27.96681,-82.408435
7630,7630,N Meridian Av @ Jackson St,27.949633,-82.448655
7631,7631,N Meridian Av @ Jackson St,27.94985,-82.448857
7632,7632,S Meridian Av @ Cumberland Av,27.945167,-82.448482
7633,7633,22nd St @ 137th Av,28.071481,-82.434454
7634,7634,S Meridian Av @ Channelside Dr,27.943827,-82.448694
7635,7635,Boyette Rd @ Balm Riverview Rd,27.853438,-82.313931
7674,7674,Westshore Blvd @ Spruce St,27.959263,-82.524282
7675,7675,Westshore Blvd @ Union St,27.957488,-82.52426
7676,7676,Westshore Blvd @ Laurel St,27.955667,-82.524278
7677,7677,Westshore Blvd @ Laurel St,27.956211,-82.523995
7678,7678,Busch Blvd @ Hyaleah Rd,28.03273,-82.405574
7679,7679,Busch Blvd @ 33Rd St,28.032435,-82.423511
7680,7680,Gunn Hwy @ Community Campus Dr,28.06573,-82.564201
7681,7681,Gunn Hwy @ Cedar Forest Dr,28.065309,-82.560541
7682,7682,Sheldon @ Chase Professional Park,28.048756,-82.582948
7683,7683,Sheldon Rd @ Westchase Surgical Ctr,28.048829,-82.582533
7684,7684,Kennedy Blvd @ Ashley Dr,27.946895,-82.460287
7685,7685,Progress Blvd @ Valleydale Dr,27.893856,-82.343779
7686,7686,22nd St @ 137th Av,28.070657,-82.434667
7687,7687,22nd St @ 140th Av,28.073654,-82.434626
7688,7688,N 42nd St @ Lazy Oak Dr,28.072175,-82.414115
7689,7689,N 42nd St @ Lazy Oak Dr,28.072728,-82.413943
7690,7690,Boy Scout Blvd @ Jim Walter Blvd,27.966355,-82.51156
7691,7691,6th Medical Group @ MacDill AFB,27.859456,-82.500051
7693,7693,Melburne Blvd @ 49th St,27.970341,-82.402884
7694,7694,50th St @ 23Rd Av,27.972532,-82.401506
7695,7695,50th St @ 26th Av,27.97476,-82.401454
7696,7696,N 50th St @ 26th Av,27.973954,-82.40185
7697,7697,N 50th St @ 23Rd Av,27.97198,-82.401881
7698,7698,Melburne Blvd @ N 49th St,27.970494,-82.402509
7699,7699,Causeway Blvd @ 78th St,27.922627,-82.369495
7700,7700,Causeway Blvd @ 78th St,27.922781,-82.368989
7701,7701,Causeway Blvd @ 50th St F/S,27.923033,-82.402287
7702,7702,M L King Jr Bvdl @ Himes Av,27.981233,-82.500939
7703,7703,Nebraska Av @ E Grove Av,28.070602,-82.45099
7704,7704,Nebraska Av @ E Orange Av,28.070068,-82.451324
7705,7705,40th St @ Humphrey St,28.030396,-82.416428
7706,7706,40th St @ Miller Av,28.022635,-82.41567
7707,7707,40th St @ Riverhills Dr,28.020715,-82.414779
7708,7708,Columbus Dr @ N Gomez Av,27.966838,-82.491278
7709,7709,Cypress St @ Rome Av,27.951909,-82.475748
7710,7710,Kelly Rd @ Dosina Lane,27.982852,-82.565062
7711,7711,Zemke Av @ MacDill Av,27.86128,-82.493802
7712,7712,Zemke Av @ MacDill Av,27.8611,-82.492376
7714,7714,40th St @ Mohawk  Av,27.996735,-82.413915
7715,7715,40th St @ E Henry Av,27.999524,-82.414076
7716,7716,Flowler Av @ 9th Av,28.054322,-82.449569
7717,7717,Broadway Av @ Magnolia Av,27.975218,-82.31358
7718,7718,Sligh Av @ Harney Rd,28.010793,-82.377457
7719,7719,Whiting St @ Franklin St,27.945465,-82.457158
7720,7720,Cypress St @ Howard Av,27.952151,-82.48326
7721,7721,Cypress St @ Tampania Av,27.952158,-82.48732
7722,7722,Cypress St @ Lincoln Av,27.952153,-82.497516
7723,7723,Linebaugh Av @ 15th St,28.03997,-82.443141
7724,7724,Cypress St @ Lincoln Av,27.951981,-82.497101
7725,7725,Cypress St @ Howard Av,27.951979,-82.482622
7726,7726,Cypress St @ Fremont Av,27.951944,-82.47837
7729,7729,South Boulevard @ Horatio St,27.939919,-82.468515
7730,7730,Us Hwy 301 @ Balm Rd,27.770545,-82.334996
7731,7731,Us Hwy 301 @ Paseo Al Mar Blvd,27.769331,-82.33519
7732,7732,Us Hwy 301 @ Estates Del Sol Dr,27.813883,-82.332487
7733,7733,40th St @ Idlewild St,28.001028,-82.414278
7734,7734,Us Hwy 301 @ Southern Pointe Blvd,27.811754,-82.333066
7735,7735,Us Hwy 301 @ Symmes Rd,27.83615,-82.328405
7736,7736,Whiting St @ Tampa St,27.945166,-82.457492
7737,7737,Lutz Target,28.173207,-82.471804
7738,7738,40th St @ Fern St,28.005556,-82.413892
7739,7739,Us Hwy 301 @ Riverview Oaks Shoppin,27.857674,-82.326455
7740,7740,Dale Mabry Hwy @ San Carlos St,27.92406,-82.505796
7742,7742,Us Hwy 301 @ Symmes Rd,27.834257,-82.328943
7743,7743,Us Hwy 301 @ Cone Grove Rd,27.846748,-82.326773
7744,7744,Us Hwy 301 @ Cone Grove Rd,27.846024,-82.326966
7745,7745,50th St @ Cumberland Dr.,28.013992,-82.401842
7746,7746,56th St @ Ridgeway Dr,28.027536,-82.393304
7747,7747,56th St @ Grove Hill Rd,28.02961,-82.393323
7748,7748,56th St @ Riverhills Dr,28.026169,-82.393578
7749,7749,Sligh Av @ Occident St,28.010849,-82.524303
7750,7750,Sligh Av @ Occident St,28.010686,-82.524364
7751,7751,Channelside Dr @ Florida Av,27.942957,-82.454019
7752,7752,Sligh Av @ 4809,28.010773,-82.528488
7753,7753,22nd St @ M L King Jr Blvd,27.980889,-82.434874
7754,7754,Hanna Av @ 41St St,28.003463,-82.413477
7755,7755,Boyette Rd @ Balm Riverview Rd,27.85363,-82.31568
7764,7764,78th St @ Camden Woods Dr,27.905923,-82.36875
7765,7765,78th St @ Camden Woods Dr,27.906158,-82.368567
7766,7766,Busch Blvd @ Beverly Dr,28.032717,-82.394872
7767,7767,Busch Blvd @ 52nd St,28.032736,-82.397943
7768,7768,Busch Blvd @ 52nd St,28.032455,-82.398196
7774,7774,21St Av @ 28th Street,27.970346,-82.42896
7775,7775,Columbus Dr @ 50th St,27.96507,-82.403474
7776,7776,Columbus Dr @ 50th St,27.964889,-82.403484
7777,7777,Euclid Av @  E Tampa Circle,27.908732,-82.507747
7778,7778,Bloomingdale Av @ Bloomingdale High,27.893583,-82.253915
7779,7779,Bloomingdale Av @ Bloomingdale High,27.893746,-82.254047
7780,7780,Natures Way Blvd @ Callista Av,27.883222,-82.266118
7781,7781,Natures Way Blvd @ Dunairre Dr.,27.880931,-82.266467
7782,7782,Natures Way Blvd @ Elm Grove Lane,27.878403,-82.266168
7783,7783,Glenhaven Dr @@ Natures Way Blvd,27.876789,-82.265635
7784,7784,Glenhaven Dr @ Bell Shoals Rd,27.87587,-82.268692
7785,7785,Bell Shoals Rd @ Garnet Dr,27.879322,-82.269201
7786,7786,Lakewood Dr @ Broadway Av,27.97736,-82.310427
7787,7787,Lakewood Dr @ Broadway Av,27.976917,-82.31061
7788,7788,Progress Blvd @ Falkenburg Rd,27.899039,-82.356199
7789,7789,Progress Blvd @ Falkenburg Rd,27.899284,-82.356816
7791,7791,Nebraska Av @ Giddens Av,27.99546,-82.451223
7792,7792,Metro Rapid Station 9 Nebraska Av @,27.971324,-82.451057
7793,7793,Metro Rapid Station 11 Nebraska Av,27.977021,-82.451068
7794,7794,Metro Rapid Station 19 Nebraska Av,28.011254,-82.451184
7795,7795,Metro Rapid Station 21 Nebraska Av,28.016579,-82.451165
7796,7796,Metro Rapid Station 25 Nebraska Av,28.033848,-82.451076
7797,7797,Metro Rapid Station 27 Nebraska Av,28.039317,-82.451057
7798,7798,Metro Rapid Station 29 Nebraska Av,28.048056,-82.451017
7799,7799,Metro Rapid Station 33 Nebraska Av,28.065866,-82.450999
7800,7800,Metro Rapid Station 44 Fletcher Av,28.068933,-82.412535
7801,7801,Metro Rapid Station 48 Fletcher Av,28.069063,-82.393271
7802,7802,Metro Rapid Station 49 Fletcher Av,28.069353,-82.394346
7804,7804,Metro Rapid Station 34 Nebraska Av,28.065323,-82.451334
7805,7805,Metro Rapid Station 26 Nebraska Av,28.034581,-82.451411
7806,7806,Metro Rapid Station 22 Nebraska Av,28.017059,-82.451347
7807,7807,Metro Rapid Station 12 Nebraska Av,27.977329,-82.45125
7808,7808,Metro Rapid Station 4 Nebraska Av @,27.951888,-82.451135
7809,7809,Jackson St @ Pierce St,27.948038,-82.454283
7810,7810,Hidden River Regional Park-N-Ride,28.075001,-82.360529
7813,7813,22nd St @ Rowlett Park Dr,28.022565,-82.435064
7822,7822,Apollo Beach Sweetbay South,27.751136,-82.410846
7823,7823,Apollo Beach Sweetbay North,27.75254,-82.408583
7824,7824,Metro Rapid Station 7 Neb. @ Columb,27.966443,-82.451107
7825,7825,Metro Rapid Station 8 Nebraska @ Co,27.967013,-82.451299
7826,7826,Metro Rapid Station 67 8602 Hidden,28.074306,-82.363531
7827,7827,Metro Rapid Station 1 Kennedy @ Pie,27.948826,-82.454668
7828,7828,Metro Rapid Station 2 Jackson @ Pie,27.948047,-82.454061
7829,7829,Metro Rapid Station 10 Nebraska @ F,27.970862,-82.45128
7832,7832,Metro Rapid Station 13 Nebraska @ M,27.981196,-82.451048
7833,7833,Metro Rapid Station 15 Nebraska @ H,27.995886,-82.45104
7834,7834,Metro Rapid Station 16 (Nebraska @,27.995886,-82.451223
7835,7835,Metro Rapid Station 17 (Nebraska @,28.001664,-82.451163
7836,7836,Metro Rapid Station 18 (Nebraska @,28.001664,-82.451345
7837,7837,Metro Rapid Station 20 (Nebraska @,28.010439,-82.451377
7838,7838,Metro Rapid Station 23 (Waters @ Ju,28.024856,-82.451156
7839,7839,Metro Rapid Station 28 Nebraska @ L,28.040431,-82.451371
7840,7840,Metro Rapid Station 31 Nebraska @,28.055254,-82.450947
7841,7841,Metro Rapid Station 32 Nebraska @ F,28.053679,-82.45118
7842,7842,Metro Rapid Station 35 Nebraska @ F,28.069045,-82.451081
7843,7843,Metro Rapid Station 36 Nebraska @ F,28.068945,-82.451233
7844,7844,Metro Rapid Station 38 Fletcher @ 1,28.069272,-82.443426
7845,7845,Metro Rapid Station 39 Fletcher @ 2,28.069181,-82.435224
7846,7846,Metro Rapid Station 51 13298 Teleco,28.067713,-82.374679
7847,7847,Metro Rapid Station 53 13118 Teleco,28.066021,-82.376059
7848,7848,Metro Rapid Station 55 @ Telecom Dr,28.059801,-82.378618
7849,7849,Metro Rapid Station 57 @ Telecom Dr,28.062379,-82.374176
7850,7850,Metro Rapid Station 59 @ Telecom Dr,28.063093,-82.371813
7851,7851,Metro Rapid Station 61 @ Telecm Pkw,28.067773,-82.369741
7852,7852,Nebraska Av @ 33Rd Av,27.98087,-82.451231
